[{"pk": 27, "model": "signup.constituency", "fields": {"lat": null, "year": "2009-01-01", "lon": null, "name": "Belfast East", "slug": "belfast-east"}}, {"pk": 28, "model": "signup.constituency", "fields": {"lat": null, "year": "2009-01-01", "lon": null, "name": "Belfast North", "slug": "belfast-north"}}, {"pk": 29, "model": "signup.constituency", "fields": {"lat": null, "year": "2009-01-01", "lon": null, "name": "Belfast South", "slug": "belfast-south"}}, {"pk": 30, "model": "signup.constituency", "fields": {"lat": null, "year": "2009-01-01", "lon": null, "name": "Belfast West", "slug": "belfast-west"}}, {"pk": 169, "model": "signup.constituency", "fields": {"lat": null, "year": "2009-01-01", "lon": null, "name": "East Antrim", "slug": "east-antrim"}}, {"pk": 173, "model": "signup.constituency", "fields": {"lat": null, "year": "2009-01-01", "lon": null, "name": "East Londonderry", "slug": "east-londonderry"}}, {"pk": 198, "model": "signup.constituency", "fields": {"lat": null, "year": "2009-01-01", "lon": null, "name": "Fermanagh & South Tyrone", "slug": "fermanagh-south-tyrone"}}, {"pk": 202, "model": "signup.constituency", "fields": {"lat": null, "year": "2009-01-01", "lon": null, "name": "Foyle", "slug": "foyle"}}, {"pk": 274, "model": "signup.constituency", "fields": {"lat": null, "year": "2009-01-01", "lon": null, "name": "Lagan Valley", "slug": "lagan-valley"}}, {"pk": 322, "model": "signup.constituency", "fields": {"lat": null, "year": "2009-01-01", "lon": null, "name": "Mid Ulster", "slug": "mid-ulster"}}, {"pk": 344, "model": "signup.constituency", "fields": {"lat": null, "year": "2009-01-01", "lon": null, "name": "Newry & Armagh", "slug": "newry-armagh"}}, {"pk": 346, "model": "signup.constituency", "fields": {"lat": null, "year": "2009-01-01", "lon": null, "name": "North Antrim", "slug": "north-antrim"}}, {"pk": 350, "model": "signup.constituency", "fields": {"lat": null, "year": "2009-01-01", "lon": null, "name": "North Down", "slug": "north-down"}}, {"pk": 242, "model": "signup.constituency", "fields": {"lat": 51.680291823399997, "year": "2009-01-01", "lon": -0.27498627318199997, "name": "Hertsmere", "slug": "hertsmere"}}, {"pk": 451, "model": "signup.constituency", "fields": {"lat": null, "year": "2009-01-01", "lon": null, "name": "South Antrim", "slug": "south-antrim"}}, {"pk": 455, "model": "signup.constituency", "fields": {"lat": null, "year": "2009-01-01", "lon": null, "name": "South Down", "slug": "south-down"}}, {"pk": 492, "model": "signup.constituency", "fields": {"lat": null, "year": "2009-01-01", "lon": null, "name": "Strangford", "slug": "strangford"}}, {"pk": 526, "model": "signup.constituency", "fields": {"lat": null, "year": "2009-01-01", "lon": null, "name": "Upper Bann", "slug": "upper-bann"}}, {"pk": 560, "model": "signup.constituency", "fields": {"lat": null, "year": "2009-01-01", "lon": null, "name": "West Tyrone", "slug": "west-tyrone"}}, {"pk": 1, "model": "signup.constituency", "fields": {"lat": 51.622940662600001, "year": "2009-01-01", "lon": -3.7258927920099998, "name": "Aberavon", "slug": "aberavon"}}, {"pk": 2, "model": "signup.constituency", "fields": {"lat": 51.291957573700003, "year": "2009-01-01", "lon": -0.79364295216400005, "name": "Aldershot", "slug": "aldershot"}}, {"pk": 3, "model": "signup.constituency", "fields": {"lat": 52.612051549299998, "year": "2009-01-01", "lon": -1.93167981456, "name": "Aldridge-Brownhills", "slug": "aldridge-brownhills"}}, {"pk": 4, "model": "signup.constituency", "fields": {"lat": 53.398949595099999, "year": "2009-01-01", "lon": -2.3820785764300001, "name": "Altrincham & Sale West", "slug": "altrincham-sale-west"}}, {"pk": 5, "model": "signup.constituency", "fields": {"lat": 53.162798632799998, "year": "2009-01-01", "lon": -3.0469491774000002, "name": "Alyn & Deeside", "slug": "alyn-deeside"}}, {"pk": 6, "model": "signup.constituency", "fields": {"lat": 53.026826100100003, "year": "2009-01-01", "lon": -1.40882582938, "name": "Amber Valley", "slug": "amber-valley"}}, {"pk": 7, "model": "signup.constituency", "fields": {"lat": 50.908809778600002, "year": "2009-01-01", "lon": -0.40530327002700001, "name": "Arundel & South Downs", "slug": "arundel-south-downs"}}, {"pk": 8, "model": "signup.constituency", "fields": {"lat": 53.087136187399999, "year": "2009-01-01", "lon": -1.2543985629000001, "name": "Ashfield", "slug": "ashfield"}}, {"pk": 9, "model": "signup.constituency", "fields": {"lat": 51.131276312899999, "year": "2009-01-01", "lon": 0.81028660775000005, "name": "Ashford", "slug": "ashford"}}, {"pk": 10, "model": "signup.constituency", "fields": {"lat": 53.500792730199997, "year": "2009-01-01", "lon": -2.11322897876, "name": "Ashton-under-Lyne", "slug": "ashton-under-lyne"}}, {"pk": 11, "model": "signup.constituency", "fields": {"lat": 51.727078410200001, "year": "2009-01-01", "lon": -0.80648066795999995, "name": "Aylesbury", "slug": "aylesbury"}}, {"pk": 12, "model": "signup.constituency", "fields": {"lat": 51.9817251459, "year": "2009-01-01", "lon": -1.2835699676000001, "name": "Banbury", "slug": "banbury"}}, {"pk": 13, "model": "signup.constituency", "fields": {"lat": 51.538070297300003, "year": "2009-01-01", "lon": 0.10753108339299999, "name": "Barking", "slug": "barking"}}, {"pk": 14, "model": "signup.constituency", "fields": {"lat": 53.573694275800001, "year": "2009-01-01", "lon": -1.4491131303, "name": "Barnsley Central", "slug": "barnsley-central"}}, {"pk": 15, "model": "signup.constituency", "fields": {"lat": 53.553299936999998, "year": "2009-01-01", "lon": -1.2966400022, "name": "Barnsley East & Mexborough", "slug": "barnsley-east-mexborough"}}, {"pk": 16, "model": "signup.constituency", "fields": {"lat": 53.523659669099999, "year": "2009-01-01", "lon": -1.61590197364, "name": "Barnsley West & Penistone", "slug": "barnsley-west-penistone"}}, {"pk": 17, "model": "signup.constituency", "fields": {"lat": 54.1334109254, "year": "2009-01-01", "lon": -3.1751710427700002, "name": "Barrow & Furness", "slug": "barrow-furness"}}, {"pk": 18, "model": "signup.constituency", "fields": {"lat": 51.541789666699998, "year": "2009-01-01", "lon": 0.432197219764, "name": "Basildon", "slug": "basildon"}}, {"pk": 19, "model": "signup.constituency", "fields": {"lat": 51.258457441899999, "year": "2009-01-01", "lon": -1.09354246381, "name": "Basingstoke", "slug": "basingstoke"}}, {"pk": 20, "model": "signup.constituency", "fields": {"lat": 53.337115288299998, "year": "2009-01-01", "lon": -0.97878150409800002, "name": "Bassetlaw", "slug": "bassetlaw"}}, {"pk": 21, "model": "signup.constituency", "fields": {"lat": 51.384006620000001, "year": "2009-01-01", "lon": -2.36461438133, "name": "Bath", "slug": "bath"}}, {"pk": 22, "model": "signup.constituency", "fields": {"lat": 53.729419016400001, "year": "2009-01-01", "lon": -1.6703429758699999, "name": "Batley & Spen", "slug": "batley-spen"}}, {"pk": 23, "model": "signup.constituency", "fields": {"lat": 51.464011986300001, "year": "2009-01-01", "lon": -0.163509521662, "name": "Battersea", "slug": "battersea"}}, {"pk": 24, "model": "signup.constituency", "fields": {"lat": 51.565153476600003, "year": "2009-01-01", "lon": -0.62473022825699998, "name": "Beaconsfield", "slug": "beaconsfield"}}, {"pk": 25, "model": "signup.constituency", "fields": {"lat": 51.385830306400003, "year": "2009-01-01", "lon": -0.029475307548099999, "name": "Beckenham", "slug": "beckenham"}}, {"pk": 26, "model": "signup.constituency", "fields": {"lat": 52.135915958200002, "year": "2009-01-01", "lon": -0.46226818783599999, "name": "Bedford", "slug": "bedford"}}, {"pk": 31, "model": "signup.constituency", "fields": {"lat": 55.469673864400001, "year": "2009-01-01", "lon": -1.93089494588, "name": "Berwick-upon-Tweed", "slug": "berwick-upon-tweed"}}, {"pk": 32, "model": "signup.constituency", "fields": {"lat": 51.523175893900003, "year": "2009-01-01", "lon": -0.046720770431000001, "name": "Bethnal Green & Bow", "slug": "bethnal-green-bow"}}, {"pk": 33, "model": "signup.constituency", "fields": {"lat": 53.773993556999997, "year": "2009-01-01", "lon": -0.238294194313, "name": "Beverley & Holderness", "slug": "beverley-holderness"}}, {"pk": 34, "model": "signup.constituency", "fields": {"lat": 50.938548390000001, "year": "2009-01-01", "lon": 0.49590130220599998, "name": "Bexhill & Battle", "slug": "bexhill-battle"}}, {"pk": 35, "model": "signup.constituency", "fields": {"lat": 51.464007091600003, "year": "2009-01-01", "lon": 0.16580440105800001, "name": "Bexleyheath & Crayford", "slug": "bexleyheath-crayford"}}, {"pk": 36, "model": "signup.constituency", "fields": {"lat": 51.590365289200001, "year": "2009-01-01", "lon": 0.47137173388600001, "name": "Billericay", "slug": "billericay"}}, {"pk": 37, "model": "signup.constituency", "fields": {"lat": 53.388366779499997, "year": "2009-01-01", "lon": -3.0307196370399998, "name": "Birkenhead", "slug": "birkenhead"}}, {"pk": 38, "model": "signup.constituency", "fields": {"lat": 52.447585539099997, "year": "2009-01-01", "lon": -1.9549907663999999, "name": "Birmingham, Edgbaston", "slug": "birmingham-edgbaston"}}, {"pk": 39, "model": "signup.constituency", "fields": {"lat": 52.529796919900001, "year": "2009-01-01", "lon": -1.8288089493899999, "name": "Birmingham, Erdington", "slug": "birmingham-erdington"}}, {"pk": 40, "model": "signup.constituency", "fields": {"lat": 52.421746078300004, "year": "2009-01-01", "lon": -1.8740712875700001, "name": "Birmingham, Hall Green", "slug": "birmingham-hall-green"}}, {"pk": 41, "model": "signup.constituency", "fields": {"lat": 52.489128559000001, "year": "2009-01-01", "lon": -1.81009673039, "name": "Birmingham, Hodge Hill", "slug": "birmingham-hodge-hill"}}, {"pk": 42, "model": "signup.constituency", "fields": {"lat": 52.493625318900001, "year": "2009-01-01", "lon": -1.90021900685, "name": "Birmingham, Ladywood", "slug": "birmingham-ladywood"}}, {"pk": 43, "model": "signup.constituency", "fields": {"lat": 52.413726896100002, "year": "2009-01-01", "lon": -1.9913338810400001, "name": "Birmingham, Northfield", "slug": "birmingham-northfield"}}, {"pk": 44, "model": "signup.constituency", "fields": {"lat": 52.532341700400004, "year": "2009-01-01", "lon": -1.91843394717, "name": "Birmingham, Perry Barr", "slug": "birmingham-perry-barr"}}, {"pk": 45, "model": "signup.constituency", "fields": {"lat": 52.422957889800003, "year": "2009-01-01", "lon": -1.9124606397899999, "name": "Birmingham, Selly Oak", "slug": "birmingham-selly-oak"}}, {"pk": 46, "model": "signup.constituency", "fields": {"lat": 52.454953753600002, "year": "2009-01-01", "lon": -1.8554349317100001, "name": "Birmingham, Sparkbrook & Small Heath", "slug": "birmingham-sparkbrook-small-heath"}}, {"pk": 47, "model": "signup.constituency", "fields": {"lat": 52.464177876500003, "year": "2009-01-01", "lon": -1.8019224084800001, "name": "Birmingham, Yardley", "slug": "birmingham-yardley"}}, {"pk": 48, "model": "signup.constituency", "fields": {"lat": 54.5914955565, "year": "2009-01-01", "lon": -1.9591309210200001, "name": "Bishop Auckland", "slug": "bishop-auckland"}}, {"pk": 49, "model": "signup.constituency", "fields": {"lat": 52.509779451900002, "year": "2009-01-01", "lon": -1.19924468977, "name": "Blaby", "slug": "blaby"}}, {"pk": 50, "model": "signup.constituency", "fields": {"lat": 53.724690102499999, "year": "2009-01-01", "lon": -2.4984304845800001, "name": "Blackburn", "slug": "blackburn"}}, {"pk": 51, "model": "signup.constituency", "fields": {"lat": 53.886614824299997, "year": "2009-01-01", "lon": -3.02170711676, "name": "Blackpool North & Fleetwood", "slug": "blackpool-north-fleetwood"}}, {"pk": 52, "model": "signup.constituency", "fields": {"lat": 53.806933862199998, "year": "2009-01-01", "lon": -3.0304763176599998, "name": "Blackpool South", "slug": "blackpool-south"}}, {"pk": 53, "model": "signup.constituency", "fields": {"lat": 51.753423327199997, "year": "2009-01-01", "lon": -3.2073697920700002, "name": "Blaenau Gwent", "slug": "blaenau-gwent"}}, {"pk": 54, "model": "signup.constituency", "fields": {"lat": 54.931242834599999, "year": "2009-01-01", "lon": -1.7040986182, "name": "Blaydon", "slug": "blaydon"}}, {"pk": 55, "model": "signup.constituency", "fields": {"lat": 55.093752711299999, "year": "2009-01-01", "lon": -1.55362240167, "name": "Blyth Valley", "slug": "blyth-valley"}}, {"pk": 56, "model": "signup.constituency", "fields": {"lat": 50.793475955700004, "year": "2009-01-01", "lon": -0.63981095420800005, "name": "Bognor Regis & Littlehampton", "slug": "bognor-regis-littlehampton"}}, {"pk": 57, "model": "signup.constituency", "fields": {"lat": 53.196952647700002, "year": "2009-01-01", "lon": -1.3187392722, "name": "Bolsover", "slug": "bolsover"}}, {"pk": 58, "model": "signup.constituency", "fields": {"lat": 53.6083881765, "year": "2009-01-01", "lon": -2.4182587225700001, "name": "Bolton North East", "slug": "bolton-north-east"}}, {"pk": 59, "model": "signup.constituency", "fields": {"lat": 53.553061225599997, "year": "2009-01-01", "lon": -2.40362679391, "name": "Bolton South East", "slug": "bolton-south-east"}}, {"pk": 60, "model": "signup.constituency", "fields": {"lat": 53.574901804699998, "year": "2009-01-01", "lon": -2.5377313590999999, "name": "Bolton West", "slug": "bolton-west"}}, {"pk": 61, "model": "signup.constituency", "fields": {"lat": 53.466787541000002, "year": "2009-01-01", "lon": -2.99321903394, "name": "Bootle", "slug": "bootle"}}, {"pk": 62, "model": "signup.constituency", "fields": {"lat": 53.039716548000001, "year": "2009-01-01", "lon": 0.053996192462900001, "name": "Boston & Skegness", "slug": "boston-skegness"}}, {"pk": 63, "model": "signup.constituency", "fields": {"lat": 52.6086991743, "year": "2009-01-01", "lon": -1.40641127558, "name": "Bosworth", "slug": "bosworth"}}, {"pk": 64, "model": "signup.constituency", "fields": {"lat": 50.742344641000003, "year": "2009-01-01", "lon": -1.80971001955, "name": "Bournemouth East", "slug": "bournemouth-east"}}, {"pk": 65, "model": "signup.constituency", "fields": {"lat": 50.744744357800002, "year": "2009-01-01", "lon": -1.8902739883199999, "name": "Bournemouth West", "slug": "bournemouth-west"}}, {"pk": 66, "model": "signup.constituency", "fields": {"lat": 51.400741534399998, "year": "2009-01-01", "lon": -0.815486731322, "name": "Bracknell", "slug": "bracknell"}}, {"pk": 67, "model": "signup.constituency", "fields": {"lat": 53.817292028399997, "year": "2009-01-01", "lon": -1.73276154797, "name": "Bradford North", "slug": "bradford-north"}}, {"pk": 68, "model": "signup.constituency", "fields": {"lat": 53.759763171700001, "year": "2009-01-01", "lon": -1.75694414981, "name": "Bradford South", "slug": "bradford-south"}}, {"pk": 69, "model": "signup.constituency", "fields": {"lat": 53.799677905499998, "year": "2009-01-01", "lon": -1.81485548687, "name": "Bradford West", "slug": "bradford-west"}}, {"pk": 70, "model": "signup.constituency", "fields": {"lat": 51.881824741400003, "year": "2009-01-01", "lon": 0.58044047545699995, "name": "Braintree", "slug": "braintree"}}, {"pk": 71, "model": "signup.constituency", "fields": {"lat": 52.109782966700003, "year": "2009-01-01", "lon": -3.38378734514, "name": "Brecon & Radnorshire", "slug": "brecon-radnorshire"}}, {"pk": 72, "model": "signup.constituency", "fields": {"lat": 51.550391633700002, "year": "2009-01-01", "lon": -0.22994745539600001, "name": "Brent East", "slug": "brent-east"}}, {"pk": 73, "model": "signup.constituency", "fields": {"lat": 51.576750341599997, "year": "2009-01-01", "lon": -0.29171252760900002, "name": "Brent North", "slug": "brent-north"}}, {"pk": 74, "model": "signup.constituency", "fields": {"lat": 51.550476111400002, "year": "2009-01-01", "lon": -0.26869537273299998, "name": "Brent South", "slug": "brent-south"}}, {"pk": 75, "model": "signup.constituency", "fields": {"lat": 51.475823673900003, "year": "2009-01-01", "lon": -0.32235804114900002, "name": "Brentford & Isleworth", "slug": "brentford-isleworth"}}, {"pk": 76, "model": "signup.constituency", "fields": {"lat": 51.681341998100002, "year": "2009-01-01", "lon": 0.259734588037, "name": "Brentwood & Ongar", "slug": "brentwood-ongar"}}, {"pk": 77, "model": "signup.constituency", "fields": {"lat": 51.498008536599997, "year": "2009-01-01", "lon": -3.6380366193499998, "name": "Bridgend", "slug": "bridgend"}}, {"pk": 78, "model": "signup.constituency", "fields": {"lat": 51.144170625999998, "year": "2009-01-01", "lon": -3.2579614018599998, "name": "Bridgwater", "slug": "bridgwater"}}, {"pk": 79, "model": "signup.constituency", "fields": {"lat": 53.592295772900002, "year": "2009-01-01", "lon": -0.72486464556600005, "name": "Brigg & Goole", "slug": "brigg-goole"}}, {"pk": 80, "model": "signup.constituency", "fields": {"lat": 50.823104762699998, "year": "2009-01-01", "lon": -0.0520133168698, "name": "Brighton, Kemptown", "slug": "brighton-kemptown"}}, {"pk": 81, "model": "signup.constituency", "fields": {"lat": 50.855113157200002, "year": "2009-01-01", "lon": -0.13696111478600001, "name": "Brighton, Pavilion", "slug": "brighton-pavilion"}}, {"pk": 82, "model": "signup.constituency", "fields": {"lat": 51.448312937099999, "year": "2009-01-01", "lon": -2.5513281029599999, "name": "Bristol East", "slug": "bristol-east"}}, {"pk": 83, "model": "signup.constituency", "fields": {"lat": 51.444827525100003, "year": "2009-01-01", "lon": -2.8213658689600001, "name": "Bristol North West", "slug": "bristol-north-west"}}, {"pk": 84, "model": "signup.constituency", "fields": {"lat": 51.423884422100002, "year": "2009-01-01", "lon": -2.5993918104399998, "name": "Bristol South", "slug": "bristol-south"}}, {"pk": 85, "model": "signup.constituency", "fields": {"lat": 51.475100765199997, "year": "2009-01-01", "lon": -2.6097856931400001, "name": "Bristol West", "slug": "bristol-west"}}, {"pk": 86, "model": "signup.constituency", "fields": {"lat": 51.395736436900002, "year": "2009-01-01", "lon": 0.047537105224299998, "name": "Bromley & Chislehurst", "slug": "bromley-chislehurst"}}, {"pk": 87, "model": "signup.constituency", "fields": {"lat": 52.361677463100001, "year": "2009-01-01", "lon": -2.0065821083599999, "name": "Bromsgrove", "slug": "bromsgrove"}}, {"pk": 88, "model": "signup.constituency", "fields": {"lat": 51.731847190499998, "year": "2009-01-01", "lon": -0.078919882060400001, "name": "Broxbourne", "slug": "broxbourne"}}, {"pk": 89, "model": "signup.constituency", "fields": {"lat": 52.970143621600002, "year": "2009-01-01", "lon": -1.2457013139899999, "name": "Broxtowe", "slug": "broxtowe"}}, {"pk": 90, "model": "signup.constituency", "fields": {"lat": 51.908296939800003, "year": "2009-01-01", "lon": -0.83722914389600001, "name": "Buckingham", "slug": "buckingham"}}, {"pk": 91, "model": "signup.constituency", "fields": {"lat": 53.774056402900001, "year": "2009-01-01", "lon": -2.2271641689899999, "name": "Burnley", "slug": "burnley"}}, {"pk": 92, "model": "signup.constituency", "fields": {"lat": 52.888012740100002, "year": "2009-01-01", "lon": -1.81422974772, "name": "Burton", "slug": "burton"}}, {"pk": 93, "model": "signup.constituency", "fields": {"lat": 53.610453428699998, "year": "2009-01-01", "lon": -2.3141317805799999, "name": "Bury North", "slug": "bury-north"}}, {"pk": 94, "model": "signup.constituency", "fields": {"lat": 53.554913460400002, "year": "2009-01-01", "lon": -2.30537859374, "name": "Bury South", "slug": "bury-south"}}, {"pk": 95, "model": "signup.constituency", "fields": {"lat": 52.245868837499998, "year": "2009-01-01", "lon": 0.88075579364900003, "name": "Bury St Edmunds", "slug": "bury-st-edmunds"}}, {"pk": 96, "model": "signup.constituency", "fields": {"lat": 52.971176238300004, "year": "2009-01-01", "lon": -4.3954052087699997, "name": "Caernarfon", "slug": "caernarfon"}}, {"pk": 97, "model": "signup.constituency", "fields": {"lat": 51.626291945600002, "year": "2009-01-01", "lon": -3.2024243543800002, "name": "Caerphilly", "slug": "caerphilly"}}, {"pk": 98, "model": "signup.constituency", "fields": {"lat": 53.720460360099999, "year": "2009-01-01", "lon": -1.9501314807000001, "name": "Calder Valley", "slug": "calder-valley"}}, {"pk": 99, "model": "signup.constituency", "fields": {"lat": 51.471218696199998, "year": "2009-01-01", "lon": -0.075269268267899994, "name": "Camberwell & Peckham", "slug": "camberwell-peckham"}}, {"pk": 100, "model": "signup.constituency", "fields": {"lat": 52.204105461799998, "year": "2009-01-01", "lon": 0.12659823548599999, "name": "Cambridge", "slug": "cambridge"}}, {"pk": 101, "model": "signup.constituency", "fields": {"lat": 52.706913428699998, "year": "2009-01-01", "lon": -1.98743032674, "name": "Cannock Chase", "slug": "cannock-chase"}}, {"pk": 102, "model": "signup.constituency", "fields": {"lat": 51.276370306899999, "year": "2009-01-01", "lon": 1.08913186919, "name": "Canterbury", "slug": "canterbury"}}, {"pk": 103, "model": "signup.constituency", "fields": {"lat": 51.504274807500003, "year": "2009-01-01", "lon": -3.1637945092500002, "name": "Cardiff Central", "slug": "cardiff-central"}}, {"pk": 104, "model": "signup.constituency", "fields": {"lat": 51.527638013999997, "year": "2009-01-01", "lon": -3.1776107625800001, "name": "Cardiff North", "slug": "cardiff-north"}}, {"pk": 105, "model": "signup.constituency", "fields": {"lat": 51.454899483799998, "year": "2009-01-01", "lon": -3.1394797228, "name": "Cardiff South & Penarth", "slug": "cardiff-south-penarth"}}, {"pk": 106, "model": "signup.constituency", "fields": {"lat": 51.498757811799997, "year": "2009-01-01", "lon": -3.2470660123399999, "name": "Cardiff West", "slug": "cardiff-west"}}, {"pk": 107, "model": "signup.constituency", "fields": {"lat": 54.862377274000004, "year": "2009-01-01", "lon": -2.9866045973399999, "name": "Carlisle", "slug": "carlisle"}}, {"pk": 108, "model": "signup.constituency", "fields": {"lat": 51.933977522200003, "year": "2009-01-01", "lon": -4.0983649453800002, "name": "Carmarthen East & Dinefwr", "slug": "carmarthen-east-dinefwr"}}, {"pk": 109, "model": "signup.constituency", "fields": {"lat": 51.779124783699999, "year": "2009-01-01", "lon": -4.7023410169700002, "name": "Carmarthen West & South Pembrokeshire", "slug": "carmarthen-west-south-pembrokeshire"}}, {"pk": 110, "model": "signup.constituency", "fields": {"lat": 51.3573571405, "year": "2009-01-01", "lon": -0.15892125876999999, "name": "Carshalton & Wallington", "slug": "carshalton-wallington"}}, {"pk": 111, "model": "signup.constituency", "fields": {"lat": 51.544018814200001, "year": "2009-01-01", "lon": 0.60706185051799999, "name": "Castle Point", "slug": "castle-point"}}, {"pk": 112, "model": "signup.constituency", "fields": {"lat": 52.224414547800002, "year": "2009-01-01", "lon": 1.2114480485400001, "name": "Central Suffolk & North Ipswich", "slug": "central-suffolk-north-ipswich"}}, {"pk": 113, "model": "signup.constituency", "fields": {"lat": 52.293696523599998, "year": "2009-01-01", "lon": -4.1916193953100001, "name": "Ceredigion", "slug": "ceredigion"}}, {"pk": 114, "model": "signup.constituency", "fields": {"lat": 52.695036883999997, "year": "2009-01-01", "lon": -1.11724195135, "name": "Charnwood", "slug": "charnwood"}}, {"pk": 115, "model": "signup.constituency", "fields": {"lat": 51.326670997299999, "year": "2009-01-01", "lon": 0.47660177332499998, "name": "Chatham & Aylesford", "slug": "chatham-aylesford"}}, {"pk": 116, "model": "signup.constituency", "fields": {"lat": 53.367231443400001, "year": "2009-01-01", "lon": -2.1798259530799999, "name": "Cheadle", "slug": "cheadle"}}, {"pk": 117, "model": "signup.constituency", "fields": {"lat": 51.888868089500001, "year": "2009-01-01", "lon": -2.0766201705, "name": "Cheltenham", "slug": "cheltenham"}}, {"pk": 118, "model": "signup.constituency", "fields": {"lat": 51.678832753400002, "year": "2009-01-01", "lon": -0.61577659815999997, "name": "Chesham & Amersham", "slug": "chesham-amersham"}}, {"pk": 119, "model": "signup.constituency", "fields": {"lat": 53.190752433199997, "year": "2009-01-01", "lon": -2.9109226909600001, "name": "Chester, City of", "slug": "chester-city-of"}}, {"pk": 120, "model": "signup.constituency", "fields": {"lat": 53.249938234699997, "year": "2009-01-01", "lon": -1.40148860289, "name": "Chesterfield", "slug": "chesterfield"}}, {"pk": 121, "model": "signup.constituency", "fields": {"lat": 50.905744228300001, "year": "2009-01-01", "lon": -0.75866630018900005, "name": "Chichester", "slug": "chichester"}}, {"pk": 122, "model": "signup.constituency", "fields": {"lat": 51.616977294100003, "year": "2009-01-01", "lon": 0.0027095549545199998, "name": "Chingford & Woodford Green", "slug": "chingford-woodford-green"}}, {"pk": 123, "model": "signup.constituency", "fields": {"lat": 51.639592966899997, "year": "2009-01-01", "lon": -0.19223525830099999, "name": "Chipping Barnet", "slug": "chipping-barnet"}}, {"pk": 124, "model": "signup.constituency", "fields": {"lat": 53.672109130999999, "year": "2009-01-01", "lon": -2.6679725811899999, "name": "Chorley", "slug": "chorley"}}, {"pk": 125, "model": "signup.constituency", "fields": {"lat": 50.8092232598, "year": "2009-01-01", "lon": -1.7983245565799999, "name": "Christchurch", "slug": "christchurch"}}, {"pk": 126, "model": "signup.constituency", "fields": {"lat": 51.504420091900002, "year": "2009-01-01", "lon": -0.13469082362599999, "name": "Cities of London & Westminster", "slug": "cities-of-london-westminster"}}, {"pk": 127, "model": "signup.constituency", "fields": {"lat": 53.575626582600002, "year": "2009-01-01", "lon": -0.23329599556799999, "name": "Cleethorpes", "slug": "cleethorpes"}}, {"pk": 128, "model": "signup.constituency", "fields": {"lat": 52.938999881800001, "year": "2009-01-01", "lon": -3.1077318793800002, "name": "Clwyd South", "slug": "clwyd-south"}}, {"pk": 129, "model": "signup.constituency", "fields": {"lat": 53.145088076100002, "year": "2009-01-01", "lon": -3.4585653767700002, "name": "Clwyd West", "slug": "clwyd-west"}}, {"pk": 130, "model": "signup.constituency", "fields": {"lat": 51.887598679600003, "year": "2009-01-01", "lon": 0.87578488016400002, "name": "Colchester", "slug": "colchester"}}, {"pk": 131, "model": "signup.constituency", "fields": {"lat": 53.5963506537, "year": "2009-01-01", "lon": -1.8566704544099999, "name": "Colne Valley", "slug": "colne-valley"}}, {"pk": 132, "model": "signup.constituency", "fields": {"lat": 53.165832287599997, "year": "2009-01-01", "lon": -2.3006365033999998, "name": "Congleton", "slug": "congleton"}}, {"pk": 133, "model": "signup.constituency", "fields": {"lat": 53.221351367099999, "year": "2009-01-01", "lon": -3.9749398717600002, "name": "Conwy", "slug": "conwy"}}, {"pk": 134, "model": "signup.constituency", "fields": {"lat": 54.388390334, "year": "2009-01-01", "lon": -3.3744340518599998, "name": "Copeland", "slug": "copeland"}}, {"pk": 135, "model": "signup.constituency", "fields": {"lat": 52.474246650600001, "year": "2009-01-01", "lon": -0.57507876394500002, "name": "Corby", "slug": "corby"}}, {"pk": 136, "model": "signup.constituency", "fields": {"lat": 51.845335063199997, "year": "2009-01-01", "lon": -2.0092093008099998, "name": "Cotswold", "slug": "cotswold"}}, {"pk": 137, "model": "signup.constituency", "fields": {"lat": 52.425439456100001, "year": "2009-01-01", "lon": -1.4682616614499999, "name": "Coventry North East", "slug": "coventry-north-east"}}, {"pk": 138, "model": "signup.constituency", "fields": {"lat": 52.4313391942, "year": "2009-01-01", "lon": -1.5488832863499999, "name": "Coventry North West", "slug": "coventry-north-west"}}, {"pk": 139, "model": "signup.constituency", "fields": {"lat": 52.393061364300003, "year": "2009-01-01", "lon": -1.5176470024499999, "name": "Coventry South", "slug": "coventry-south"}}, {"pk": 140, "model": "signup.constituency", "fields": {"lat": 51.126182952999997, "year": "2009-01-01", "lon": -0.195259937991, "name": "Crawley", "slug": "crawley"}}, {"pk": 141, "model": "signup.constituency", "fields": {"lat": 53.056072618899996, "year": "2009-01-01", "lon": -2.4284658676299999, "name": "Crewe & Nantwich", "slug": "crewe-nantwich"}}, {"pk": 142, "model": "signup.constituency", "fields": {"lat": 53.525160635299997, "year": "2009-01-01", "lon": -3.0731625759300001, "name": "Crosby", "slug": "crosby"}}, {"pk": 143, "model": "signup.constituency", "fields": {"lat": 51.365921321800002, "year": "2009-01-01", "lon": -0.052369507601699998, "name": "Croydon Central", "slug": "croydon-central"}}, {"pk": 144, "model": "signup.constituency", "fields": {"lat": 51.396596797900003, "year": "2009-01-01", "lon": -0.099449537732400006, "name": "Croydon North", "slug": "croydon-north"}}, {"pk": 145, "model": "signup.constituency", "fields": {"lat": 51.329988415499997, "year": "2009-01-01", "lon": -0.099926942021200005, "name": "Croydon South", "slug": "croydon-south"}}, {"pk": 146, "model": "signup.constituency", "fields": {"lat": 51.725834472199999, "year": "2009-01-01", "lon": -3.4498263839200001, "name": "Cynon Valley", "slug": "cynon-valley"}}, {"pk": 147, "model": "signup.constituency", "fields": {"lat": 51.554016144599998, "year": "2009-01-01", "lon": 0.156867535434, "name": "Dagenham", "slug": "dagenham"}}, {"pk": 148, "model": "signup.constituency", "fields": {"lat": 54.532112346200002, "year": "2009-01-01", "lon": -1.5557195323699999, "name": "Darlington", "slug": "darlington"}}, {"pk": 149, "model": "signup.constituency", "fields": {"lat": 51.418468526300003, "year": "2009-01-01", "lon": 0.247648968597, "name": "Dartford", "slug": "dartford"}}, {"pk": 150, "model": "signup.constituency", "fields": {"lat": 52.200528844399997, "year": "2009-01-01", "lon": -1.0799977814499999, "name": "Daventry", "slug": "daventry"}}, {"pk": 151, "model": "signup.constituency", "fields": {"lat": 53.236666458999998, "year": "2009-01-01", "lon": -3.2259757322199998, "name": "Delyn", "slug": "delyn"}}, {"pk": 152, "model": "signup.constituency", "fields": {"lat": 53.447488944299998, "year": "2009-01-01", "lon": -2.1240916704299999, "name": "Denton & Reddish", "slug": "denton-reddish"}}, {"pk": 153, "model": "signup.constituency", "fields": {"lat": 52.937726681400001, "year": "2009-01-01", "lon": -1.4603490541099999, "name": "Derby North", "slug": "derby-north"}}, {"pk": 154, "model": "signup.constituency", "fields": {"lat": 52.897453331100003, "year": "2009-01-01", "lon": -1.4726783506200001, "name": "Derby South", "slug": "derby-south"}}, {"pk": 155, "model": "signup.constituency", "fields": {"lat": 51.370203207199999, "year": "2009-01-01", "lon": -1.82883387826, "name": "Devizes", "slug": "devizes"}}, {"pk": 156, "model": "signup.constituency", "fields": {"lat": 53.682252394199999, "year": "2009-01-01", "lon": -1.6621069478399999, "name": "Dewsbury", "slug": "dewsbury"}}, {"pk": 157, "model": "signup.constituency", "fields": {"lat": 53.505090876799997, "year": "2009-01-01", "lon": -1.0968194583199999, "name": "Don Valley", "slug": "don-valley"}}, {"pk": 158, "model": "signup.constituency", "fields": {"lat": 53.524460329500002, "year": "2009-01-01", "lon": -1.0838370324, "name": "Doncaster Central", "slug": "doncaster-central"}}, {"pk": 159, "model": "signup.constituency", "fields": {"lat": 53.594835776899998, "year": "2009-01-01", "lon": -1.04990056595, "name": "Doncaster North", "slug": "doncaster-north"}}, {"pk": 160, "model": "signup.constituency", "fields": {"lat": 51.179461741300003, "year": "2009-01-01", "lon": 1.2749815047999999, "name": "Dover", "slug": "dover"}}, {"pk": 161, "model": "signup.constituency", "fields": {"lat": 52.525022837900003, "year": "2009-01-01", "lon": -2.1047083187600002, "name": "Dudley North", "slug": "dudley-north"}}, {"pk": 162, "model": "signup.constituency", "fields": {"lat": 52.492398301900003, "year": "2009-01-01", "lon": -2.1280831458499998, "name": "Dudley South", "slug": "dudley-south"}}, {"pk": 163, "model": "signup.constituency", "fields": {"lat": 51.444384553299997, "year": "2009-01-01", "lon": -0.079872368351599998, "name": "Dulwich & West Norwood", "slug": "dulwich-west-norwood"}}, {"pk": 164, "model": "signup.constituency", "fields": {"lat": 54.767868853899998, "year": "2009-01-01", "lon": -1.5794180316099999, "name": "Durham, City of", "slug": "durham-city-of"}}, {"pk": 165, "model": "signup.constituency", "fields": {"lat": 51.535487792600001, "year": "2009-01-01", "lon": -0.35577310594099998, "name": "Ealing North", "slug": "ealing-north"}}, {"pk": 166, "model": "signup.constituency", "fields": {"lat": 51.516122835799997, "year": "2009-01-01", "lon": -0.26310967935099999, "name": "Ealing, Acton & Shepherd's Bush", "slug": "ealing-acton-shepherd-s-bush"}}, {"pk": 167, "model": "signup.constituency", "fields": {"lat": 51.511243955399998, "year": "2009-01-01", "lon": -0.34335693140700002, "name": "Ealing, Southall", "slug": "ealing-southall"}}, {"pk": 168, "model": "signup.constituency", "fields": {"lat": 54.790482916400002, "year": "2009-01-01", "lon": -1.3549453471699999, "name": "Easington", "slug": "easington"}}, {"pk": 170, "model": "signup.constituency", "fields": {"lat": 50.757418077700002, "year": "2009-01-01", "lon": -3.1771026455200002, "name": "East Devon", "slug": "east-devon"}}, {"pk": 171, "model": "signup.constituency", "fields": {"lat": 51.530170595000001, "year": "2009-01-01", "lon": 0.065445330273099997, "name": "East Ham", "slug": "east-ham"}}, {"pk": 172, "model": "signup.constituency", "fields": {"lat": 51.029205045099999, "year": "2009-01-01", "lon": -0.99209472194699999, "name": "East Hampshire", "slug": "east-hampshire"}}, {"pk": 174, "model": "signup.constituency", "fields": {"lat": 51.238104950500002, "year": "2009-01-01", "lon": -0.065717835617099998, "name": "East Surrey", "slug": "east-surrey"}}, {"pk": 175, "model": "signup.constituency", "fields": {"lat": 50.841499310099998, "year": "2009-01-01", "lon": -0.31040497690300001, "name": "East Worthing & Shoreham", "slug": "east-worthing-shoreham"}}, {"pk": 176, "model": "signup.constituency", "fields": {"lat": 53.986608450699997, "year": "2009-01-01", "lon": -0.513935966272, "name": "East Yorkshire", "slug": "east-yorkshire"}}, {"pk": 177, "model": "signup.constituency", "fields": {"lat": 50.775760257500004, "year": "2009-01-01", "lon": 0.24023757204999999, "name": "Eastbourne", "slug": "eastbourne"}}, {"pk": 178, "model": "signup.constituency", "fields": {"lat": 50.920204532500001, "year": "2009-01-01", "lon": -1.3285329425400001, "name": "Eastleigh", "slug": "eastleigh"}}, {"pk": 179, "model": "signup.constituency", "fields": {"lat": 55.748219872100002, "year": "2009-01-01", "lon": -4.3852124374399999, "name": "Renfrewshire East", "slug": "renfrewshire-east"}}, {"pk": 180, "model": "signup.constituency", "fields": {"lat": 53.476731655899997, "year": "2009-01-01", "lon": -2.38958467447, "name": "Eccles", "slug": "eccles"}}, {"pk": 181, "model": "signup.constituency", "fields": {"lat": 53.0998380216, "year": "2009-01-01", "lon": -2.6592254689799999, "name": "Eddisbury", "slug": "eddisbury"}}, {"pk": 182, "model": "signup.constituency", "fields": {"lat": 51.628165615199997, "year": "2009-01-01", "lon": -0.056914297014100002, "name": "Edmonton", "slug": "edmonton"}}, {"pk": 183, "model": "signup.constituency", "fields": {"lat": 53.262855175299997, "year": "2009-01-01", "lon": -2.9498563546300001, "name": "Ellesmere Port & Neston", "slug": "ellesmere-port-neston"}}, {"pk": 184, "model": "signup.constituency", "fields": {"lat": 53.832688093999998, "year": "2009-01-01", "lon": -1.3900019001399999, "name": "Elmet", "slug": "elmet"}}, {"pk": 185, "model": "signup.constituency", "fields": {"lat": 51.453740412800002, "year": "2009-01-01", "lon": 0.059007461538699998, "name": "Eltham", "slug": "eltham"}}, {"pk": 186, "model": "signup.constituency", "fields": {"lat": 51.664744450800001, "year": "2009-01-01", "lon": -0.086618398316000003, "name": "Enfield North", "slug": "enfield-north"}}, {"pk": 187, "model": "signup.constituency", "fields": {"lat": 51.646987543100003, "year": "2009-01-01", "lon": -0.135889154362, "name": "Enfield, Southgate", "slug": "enfield-southgate"}}, {"pk": 188, "model": "signup.constituency", "fields": {"lat": 51.687105265699998, "year": "2009-01-01", "lon": 0.083985360679000004, "name": "Epping Forest", "slug": "epping-forest"}}, {"pk": 189, "model": "signup.constituency", "fields": {"lat": 51.333845145399998, "year": "2009-01-01", "lon": -0.265732578208, "name": "Epsom & Ewell", "slug": "epsom-ewell"}}, {"pk": 190, "model": "signup.constituency", "fields": {"lat": 52.938050143799998, "year": "2009-01-01", "lon": -1.3261000306699999, "name": "Erewash", "slug": "erewash"}}, {"pk": 191, "model": "signup.constituency", "fields": {"lat": 51.492196561999997, "year": "2009-01-01", "lon": 0.12918783945199999, "name": "Erith & Thamesmead", "slug": "erith-thamesmead"}}, {"pk": 192, "model": "signup.constituency", "fields": {"lat": 51.353375029699997, "year": "2009-01-01", "lon": -0.376850293768, "name": "Esher & Walton", "slug": "esher-walton"}}, {"pk": 193, "model": "signup.constituency", "fields": {"lat": 50.717010632600001, "year": "2009-01-01", "lon": -3.5110024913200002, "name": "Exeter", "slug": "exeter"}}, {"pk": 194, "model": "signup.constituency", "fields": {"lat": 50.183973414900002, "year": "2009-01-01", "lon": -5.21317068886, "name": "Falmouth & Camborne", "slug": "falmouth-camborne"}}, {"pk": 195, "model": "signup.constituency", "fields": {"lat": 50.856923954599999, "year": "2009-01-01", "lon": -1.21231205336, "name": "Fareham", "slug": "fareham"}}, {"pk": 196, "model": "signup.constituency", "fields": {"lat": 51.251712112600003, "year": "2009-01-01", "lon": 0.75127784800899999, "name": "Faversham & Mid Kent", "slug": "faversham-mid-kent"}}, {"pk": 197, "model": "signup.constituency", "fields": {"lat": 51.460741601599999, "year": "2009-01-01", "lon": -0.41314171492099999, "name": "Feltham & Heston", "slug": "feltham-heston"}}, {"pk": 199, "model": "signup.constituency", "fields": {"lat": 51.587928784100001, "year": "2009-01-01", "lon": -0.18563626727400001, "name": "Finchley & Golders Green", "slug": "finchley-golders-green"}}, {"pk": 200, "model": "signup.constituency", "fields": {"lat": 51.057988014300001, "year": "2009-01-01", "lon": 0.99992436599099999, "name": "Folkestone & Hythe", "slug": "folkestone-hythe"}}, {"pk": 201, "model": "signup.constituency", "fields": {"lat": 51.809633952200002, "year": "2009-01-01", "lon": -2.4314223784000002, "name": "Forest of Dean", "slug": "forest-of-dean"}}, {"pk": 203, "model": "signup.constituency", "fields": {"lat": 53.805972572599998, "year": "2009-01-01", "lon": -2.8764092807799999, "name": "Fylde", "slug": "fylde"}}, {"pk": 204, "model": "signup.constituency", "fields": {"lat": 53.399728611699999, "year": "2009-01-01", "lon": -0.45267732038300001, "name": "Gainsborough", "slug": "gainsborough"}}, {"pk": 205, "model": "signup.constituency", "fields": {"lat": 54.919404232799998, "year": "2009-01-01", "lon": -1.55617408869, "name": "Gateshead East & Washington West", "slug": "gateshead-east-washington-west"}}, {"pk": 206, "model": "signup.constituency", "fields": {"lat": 53.002145649799999, "year": "2009-01-01", "lon": -1.0818614420399999, "name": "Gedling", "slug": "gedling"}}, {"pk": 207, "model": "signup.constituency", "fields": {"lat": 51.373729602700003, "year": "2009-01-01", "lon": 0.58530799362499997, "name": "Gillingham", "slug": "gillingham"}}, {"pk": 208, "model": "signup.constituency", "fields": {"lat": 51.8464153137, "year": "2009-01-01", "lon": -2.2393596632300001, "name": "Gloucester", "slug": "gloucester"}}, {"pk": 209, "model": "signup.constituency", "fields": {"lat": 50.809649876899996, "year": "2009-01-01", "lon": -1.1776230431600001, "name": "Gosport", "slug": "gosport"}}, {"pk": 210, "model": "signup.constituency", "fields": {"lat": 51.654877497699999, "year": "2009-01-01", "lon": -4.0897900682700001, "name": "Gower", "slug": "gower"}}, {"pk": 211, "model": "signup.constituency", "fields": {"lat": 52.801884762999997, "year": "2009-01-01", "lon": -0.51949155241699996, "name": "Grantham & Stamford", "slug": "grantham-stamford"}}, {"pk": 212, "model": "signup.constituency", "fields": {"lat": 51.395767324700003, "year": "2009-01-01", "lon": 0.39867924187600001, "name": "Gravesham", "slug": "gravesham"}}, {"pk": 213, "model": "signup.constituency", "fields": {"lat": 53.559496254499997, "year": "2009-01-01", "lon": -0.0955697411143, "name": "Great Grimsby", "slug": "great-grimsby"}}, {"pk": 214, "model": "signup.constituency", "fields": {"lat": 52.634595844499998, "year": "2009-01-01", "lon": 1.64472517676, "name": "Great Yarmouth", "slug": "great-yarmouth"}}, {"pk": 215, "model": "signup.constituency", "fields": {"lat": 51.4815760989, "year": "2009-01-01", "lon": 0.026215226005600001, "name": "Greenwich & Woolwich", "slug": "greenwich-woolwich"}}, {"pk": 216, "model": "signup.constituency", "fields": {"lat": 51.189309445799999, "year": "2009-01-01", "lon": -0.58000219407999998, "name": "Guildford", "slug": "guildford"}}, {"pk": 217, "model": "signup.constituency", "fields": {"lat": 51.563682460199999, "year": "2009-01-01", "lon": -0.074381957820399996, "name": "Hackney North & Stoke Newington", "slug": "hackney-north-stoke-newington"}}, {"pk": 218, "model": "signup.constituency", "fields": {"lat": 51.540717781799998, "year": "2009-01-01", "lon": -0.056685882113199998, "name": "Hackney South & Shoreditch", "slug": "hackney-south-shoreditch"}}, {"pk": 219, "model": "signup.constituency", "fields": {"lat": 52.464781707999997, "year": "2009-01-01", "lon": -2.05583616351, "name": "Halesowen & Rowley Regis", "slug": "halesowen-rowley-regis"}}, {"pk": 220, "model": "signup.constituency", "fields": {"lat": 53.739957482299999, "year": "2009-01-01", "lon": -1.8716290848799999, "name": "Halifax", "slug": "halifax"}}, {"pk": 221, "model": "signup.constituency", "fields": {"lat": 53.776719829000001, "year": "2009-01-01", "lon": -0.68006407172899996, "name": "Haltemprice & Howden", "slug": "haltemprice-howden"}}, {"pk": 222, "model": "signup.constituency", "fields": {"lat": 53.3540433513, "year": "2009-01-01", "lon": -2.76145477187, "name": "Halton", "slug": "halton"}}, {"pk": 223, "model": "signup.constituency", "fields": {"lat": 51.484263693800003, "year": "2009-01-01", "lon": -0.21160001866, "name": "Hammersmith & Fulham", "slug": "hammersmith-fulham"}}, {"pk": 224, "model": "signup.constituency", "fields": {"lat": 51.553729580999999, "year": "2009-01-01", "lon": -0.17659715006000001, "name": "Hampstead & Highgate", "slug": "hampstead-highgate"}}, {"pk": 225, "model": "signup.constituency", "fields": {"lat": 52.5192278882, "year": "2009-01-01", "lon": -0.99229733812200005, "name": "Harborough", "slug": "harborough"}}, {"pk": 226, "model": "signup.constituency", "fields": {"lat": 51.767935570500001, "year": "2009-01-01", "lon": 0.091279229455900002, "name": "Harlow", "slug": "harlow"}}, {"pk": 227, "model": "signup.constituency", "fields": {"lat": 53.993128419199998, "year": "2009-01-01", "lon": -1.50182360441, "name": "Harrogate & Knaresborough", "slug": "harrogate-knaresborough"}}, {"pk": 228, "model": "signup.constituency", "fields": {"lat": 51.607120534800003, "year": "2009-01-01", "lon": -0.317790679277, "name": "Harrow East", "slug": "harrow-east"}}, {"pk": 229, "model": "signup.constituency", "fields": {"lat": 51.5867320463, "year": "2009-01-01", "lon": -0.363261820322, "name": "Harrow West", "slug": "harrow-west"}}, {"pk": 230, "model": "signup.constituency", "fields": {"lat": 54.674566302099997, "year": "2009-01-01", "lon": -1.2651473343299999, "name": "Hartlepool", "slug": "hartlepool"}}, {"pk": 231, "model": "signup.constituency", "fields": {"lat": 51.860604334599998, "year": "2009-01-01", "lon": 1.19646243885, "name": "Harwich", "slug": "harwich"}}, {"pk": 232, "model": "signup.constituency", "fields": {"lat": 50.919428580999998, "year": "2009-01-01", "lon": 0.68587455939399999, "name": "Hastings & Rye", "slug": "hastings-rye"}}, {"pk": 233, "model": "signup.constituency", "fields": {"lat": 50.8332004512, "year": "2009-01-01", "lon": -0.991377379231, "name": "Havant", "slug": "havant"}}, {"pk": 234, "model": "signup.constituency", "fields": {"lat": 51.497978406800001, "year": "2009-01-01", "lon": -0.44315543799700002, "name": "Hayes & Harlington", "slug": "hayes-harlington"}}, {"pk": 235, "model": "signup.constituency", "fields": {"lat": 53.3992406136, "year": "2009-01-01", "lon": -2.0710803874199999, "name": "Hazel Grove", "slug": "hazel-grove"}}, {"pk": 236, "model": "signup.constituency", "fields": {"lat": 51.775986512999999, "year": "2009-01-01", "lon": -0.49573485087000002, "name": "Hemel Hempstead", "slug": "hemel-hempstead"}}, {"pk": 237, "model": "signup.constituency", "fields": {"lat": 53.645355838199997, "year": "2009-01-01", "lon": -1.37564998883, "name": "Hemsworth", "slug": "hemsworth"}}, {"pk": 238, "model": "signup.constituency", "fields": {"lat": 51.606592023099999, "year": "2009-01-01", "lon": -0.25240684382900003, "name": "Hendon", "slug": "hendon"}}, {"pk": 239, "model": "signup.constituency", "fields": {"lat": 51.636811377900003, "year": "2009-01-01", "lon": -1.0782163842600001, "name": "Henley", "slug": "henley"}}, {"pk": 240, "model": "signup.constituency", "fields": {"lat": 51.974584992799997, "year": "2009-01-01", "lon": -2.7817054903299998, "name": "Hereford", "slug": "hereford"}}, {"pk": 241, "model": "signup.constituency", "fields": {"lat": 51.815445601199997, "year": "2009-01-01", "lon": 0.0256153041717, "name": "Hertford & Stortford", "slug": "hertford-stortford"}}, {"pk": 243, "model": "signup.constituency", "fields": {"lat": 55.0753732445, "year": "2009-01-01", "lon": -2.1548273665900002, "name": "Hexham", "slug": "hexham"}}, {"pk": 244, "model": "signup.constituency", "fields": {"lat": 53.599878528399998, "year": "2009-01-01", "lon": -2.2168748160999998, "name": "Heywood & Middleton", "slug": "heywood-middleton"}}, {"pk": 245, "model": "signup.constituency", "fields": {"lat": 53.367504023899997, "year": "2009-01-01", "lon": -1.8122052818800001, "name": "High Peak", "slug": "high-peak"}}, {"pk": 246, "model": "signup.constituency", "fields": {"lat": 51.865384714800001, "year": "2009-01-01", "lon": -0.32424897297999999, "name": "Hitchin & Harpenden", "slug": "hitchin-harpenden"}}, {"pk": 247, "model": "signup.constituency", "fields": {"lat": 51.535448173799999, "year": "2009-01-01", "lon": -0.13321425314400001, "name": "Holborn & St Pancras", "slug": "holborn-st-pancras"}}, {"pk": 248, "model": "signup.constituency", "fields": {"lat": 51.529082436300001, "year": "2009-01-01", "lon": 0.20475718378800001, "name": "Hornchurch", "slug": "hornchurch"}}, {"pk": 249, "model": "signup.constituency", "fields": {"lat": 51.588543657000002, "year": "2009-01-01", "lon": -0.13120960469699999, "name": "Hornsey & Wood Green", "slug": "hornsey-wood-green"}}, {"pk": 250, "model": "signup.constituency", "fields": {"lat": 51.043471778499999, "year": "2009-01-01", "lon": -0.34413283073599998, "name": "Horsham", "slug": "horsham"}}, {"pk": 251, "model": "signup.constituency", "fields": {"lat": 54.865887767700002, "year": "2009-01-01", "lon": -1.4421975496099999, "name": "Houghton & Washington East", "slug": "houghton-washington-east"}}, {"pk": 252, "model": "signup.constituency", "fields": {"lat": 50.849985707899997, "year": "2009-01-01", "lon": -0.19629987996500001, "name": "Hove", "slug": "hove"}}, {"pk": 253, "model": "signup.constituency", "fields": {"lat": 53.6521474571, "year": "2009-01-01", "lon": -1.7629700771500001, "name": "Huddersfield", "slug": "huddersfield"}}, {"pk": 254, "model": "signup.constituency", "fields": {"lat": 52.287879144500003, "year": "2009-01-01", "lon": -0.25201009944500002, "name": "Huntingdon", "slug": "huntingdon"}}, {"pk": 255, "model": "signup.constituency", "fields": {"lat": 53.754043167699997, "year": "2009-01-01", "lon": -2.38423792151, "name": "Hyndburn", "slug": "hyndburn"}}, {"pk": 256, "model": "signup.constituency", "fields": {"lat": 51.599022291600001, "year": "2009-01-01", "lon": 0.086689787392899995, "name": "Ilford North", "slug": "ilford-north"}}, {"pk": 257, "model": "signup.constituency", "fields": {"lat": 51.563173532199997, "year": "2009-01-01", "lon": 0.086099160725299995, "name": "Ilford South", "slug": "ilford-south"}}, {"pk": 258, "model": "signup.constituency", "fields": {"lat": 52.054660621300002, "year": "2009-01-01", "lon": 1.1666050119, "name": "Ipswich", "slug": "ipswich"}}, {"pk": 259, "model": "signup.constituency", "fields": {"lat": 50.671242419999999, "year": "2009-01-01", "lon": -1.32731628036, "name": "Isle of Wight", "slug": "isle-of-wight"}}, {"pk": 260, "model": "signup.constituency", "fields": {"lat": 51.560804095800002, "year": "2009-01-01", "lon": -0.109309094156, "name": "Islington North", "slug": "islington-north"}}, {"pk": 261, "model": "signup.constituency", "fields": {"lat": 51.538081837, "year": "2009-01-01", "lon": -0.10660339124900001, "name": "Islington South & Finsbury", "slug": "islington-south-finsbury"}}, {"pk": 262, "model": "signup.constituency", "fields": {"lat": 51.670815896100002, "year": "2009-01-01", "lon": -3.1458830072600001, "name": "Islwyn", "slug": "islwyn"}}, {"pk": 263, "model": "signup.constituency", "fields": {"lat": 54.957509034499999, "year": "2009-01-01", "lon": -1.45390040543, "name": "Jarrow", "slug": "jarrow"}}, {"pk": 264, "model": "signup.constituency", "fields": {"lat": 53.873707945900001, "year": "2009-01-01", "lon": -1.9197075984500001, "name": "Keighley", "slug": "keighley"}}, {"pk": 265, "model": "signup.constituency", "fields": {"lat": 51.496048585799997, "year": "2009-01-01", "lon": -0.183881693042, "name": "Kensington & Chelsea", "slug": "kensington-chelsea"}}, {"pk": 266, "model": "signup.constituency", "fields": {"lat": 52.400642777500003, "year": "2009-01-01", "lon": -0.85843185694500002, "name": "Kettering", "slug": "kettering"}}, {"pk": 267, "model": "signup.constituency", "fields": {"lat": 51.369479192100002, "year": "2009-01-01", "lon": -0.28457525009000001, "name": "Kingston & Surbiton", "slug": "kingston-surbiton"}}, {"pk": 268, "model": "signup.constituency", "fields": {"lat": 53.760287761900003, "year": "2009-01-01", "lon": -0.288784198667, "name": "Kingston upon Hull East", "slug": "kingston-upon-hull-east"}}, {"pk": 269, "model": "signup.constituency", "fields": {"lat": 53.779857786100003, "year": "2009-01-01", "lon": -0.34647719620200002, "name": "Kingston upon Hull North", "slug": "kingston-upon-hull-north"}}, {"pk": 270, "model": "signup.constituency", "fields": {"lat": 53.736343034800001, "year": "2009-01-01", "lon": -0.39792186712200001, "name": "Kingston upon Hull West & Hessle", "slug": "kingston-upon-hull-west-hessle"}}, {"pk": 271, "model": "signup.constituency", "fields": {"lat": 51.470294642200002, "year": "2009-01-01", "lon": -2.4906674845399999, "name": "Kingswood", "slug": "kingswood"}}, {"pk": 272, "model": "signup.constituency", "fields": {"lat": 53.486098942300004, "year": "2009-01-01", "lon": -2.93228080471, "name": "Knowsley North & Sefton East", "slug": "knowsley-north-sefton-east"}}, {"pk": 273, "model": "signup.constituency", "fields": {"lat": 53.390183027900001, "year": "2009-01-01", "lon": -2.8176288547700001, "name": "Knowsley South", "slug": "knowsley-south"}}, {"pk": 275, "model": "signup.constituency", "fields": {"lat": 53.955637914, "year": "2009-01-01", "lon": -2.79121713903, "name": "Lancaster & Wyre", "slug": "lancaster-wyre"}}, {"pk": 276, "model": "signup.constituency", "fields": {"lat": 53.785514988499997, "year": "2009-01-01", "lon": -1.52906596511, "name": "Leeds Central", "slug": "leeds-central"}}, {"pk": 277, "model": "signup.constituency", "fields": {"lat": 53.799280796799998, "year": "2009-01-01", "lon": -1.4610707011399999, "name": "Leeds East", "slug": "leeds-east"}}, {"pk": 278, "model": "signup.constituency", "fields": {"lat": 53.862782259200003, "year": "2009-01-01", "lon": -1.52440618279, "name": "Leeds North East", "slug": "leeds-north-east"}}, {"pk": 279, "model": "signup.constituency", "fields": {"lat": 53.862825090500003, "year": "2009-01-01", "lon": -1.64278020185, "name": "Leeds North West", "slug": "leeds-north-west"}}, {"pk": 280, "model": "signup.constituency", "fields": {"lat": 53.799577951800003, "year": "2009-01-01", "lon": -1.6170572171199999, "name": "Leeds West", "slug": "leeds-west"}}, {"pk": 281, "model": "signup.constituency", "fields": {"lat": 52.643270115, "year": "2009-01-01", "lon": -1.09313652504, "name": "Leicester East", "slug": "leicester-east"}}, {"pk": 282, "model": "signup.constituency", "fields": {"lat": 52.612594889699999, "year": "2009-01-01", "lon": -1.13112254748, "name": "Leicester South", "slug": "leicester-south"}}, {"pk": 283, "model": "signup.constituency", "fields": {"lat": 52.649693698599997, "year": "2009-01-01", "lon": -1.1686988860300001, "name": "Leicester West", "slug": "leicester-west"}}, {"pk": 284, "model": "signup.constituency", "fields": {"lat": 53.4977181183, "year": "2009-01-01", "lon": -2.5518622514199998, "name": "Leigh", "slug": "leigh"}}, {"pk": 285, "model": "signup.constituency", "fields": {"lat": 52.177326627200003, "year": "2009-01-01", "lon": -2.71956017149, "name": "Leominster", "slug": "leominster"}}, {"pk": 286, "model": "signup.constituency", "fields": {"lat": 50.878162085900001, "year": "2009-01-01", "lon": 0.070285602000199995, "name": "Lewes", "slug": "lewes"}}, {"pk": 287, "model": "signup.constituency", "fields": {"lat": 51.444076007900001, "year": "2009-01-01", "lon": 0.010560721396999999, "name": "Lewisham East", "slug": "lewisham-east"}}, {"pk": 288, "model": "signup.constituency", "fields": {"lat": 51.433375229200003, "year": "2009-01-01", "lon": -0.032103680631799997, "name": "Lewisham West", "slug": "lewisham-west"}}, {"pk": 289, "model": "signup.constituency", "fields": {"lat": 51.467764838500003, "year": "2009-01-01", "lon": -0.032377276899000003, "name": "Lewisham, Deptford", "slug": "lewisham-deptford"}}, {"pk": 290, "model": "signup.constituency", "fields": {"lat": 51.572086356, "year": "2009-01-01", "lon": 0.011701138986, "name": "Leyton & Wanstead", "slug": "leyton-wanstead"}}, {"pk": 291, "model": "signup.constituency", "fields": {"lat": 52.764511317500002, "year": "2009-01-01", "lon": -1.8419006118900001, "name": "Lichfield", "slug": "lichfield"}}, {"pk": 292, "model": "signup.constituency", "fields": {"lat": 53.217291189500003, "year": "2009-01-01", "lon": -0.55644932026100002, "name": "Lincoln", "slug": "lincoln"}}, {"pk": 293, "model": "signup.constituency", "fields": {"lat": 53.359191861299998, "year": "2009-01-01", "lon": -2.8815458199499999, "name": "Liverpool, Garston", "slug": "liverpool-garston"}}, {"pk": 294, "model": "signup.constituency", "fields": {"lat": 53.397726940299997, "year": "2009-01-01", "lon": -2.9654175464099999, "name": "Liverpool, Riverside", "slug": "liverpool-riverside"}}, {"pk": 295, "model": "signup.constituency", "fields": {"lat": 53.446348117900001, "year": "2009-01-01", "lon": -2.9481063280400002, "name": "Liverpool, Walton", "slug": "liverpool-walton"}}, {"pk": 296, "model": "signup.constituency", "fields": {"lat": 53.403542612999999, "year": "2009-01-01", "lon": -2.9119974394199999, "name": "Liverpool, Wavertree", "slug": "liverpool-wavertree"}}, {"pk": 297, "model": "signup.constituency", "fields": {"lat": 53.441709519299998, "year": "2009-01-01", "lon": -2.9086054629899998, "name": "Liverpool, West Derby", "slug": "liverpool-west-derby"}}, {"pk": 298, "model": "signup.constituency", "fields": {"lat": 51.722387418799997, "year": "2009-01-01", "lon": -4.2179615378599999, "name": "Llanelli", "slug": "llanelli"}}, {"pk": 299, "model": "signup.constituency", "fields": {"lat": 52.773040226600003, "year": "2009-01-01", "lon": -1.18592727454, "name": "Loughborough", "slug": "loughborough"}}, {"pk": 300, "model": "signup.constituency", "fields": {"lat": 53.281128463400002, "year": "2009-01-01", "lon": 0.027223267455900001, "name": "Louth & Horncastle", "slug": "louth-horncastle"}}, {"pk": 301, "model": "signup.constituency", "fields": {"lat": 52.486637616199999, "year": "2009-01-01", "lon": -2.74643787142, "name": "Ludlow", "slug": "ludlow"}}, {"pk": 302, "model": "signup.constituency", "fields": {"lat": 51.907961139800001, "year": "2009-01-01", "lon": -0.45669335252799997, "name": "Luton North", "slug": "luton-north"}}, {"pk": 303, "model": "signup.constituency", "fields": {"lat": 51.873103173499999, "year": "2009-01-01", "lon": -0.42063851100499999, "name": "Luton South", "slug": "luton-south"}}, {"pk": 304, "model": "signup.constituency", "fields": {"lat": 53.271150091000003, "year": "2009-01-01", "lon": -2.14254443454, "name": "Macclesfield", "slug": "macclesfield"}}, {"pk": 305, "model": "signup.constituency", "fields": {"lat": 51.496065953799999, "year": "2009-01-01", "lon": -0.81082896232099999, "name": "Maidenhead", "slug": "maidenhead"}}, {"pk": 306, "model": "signup.constituency", "fields": {"lat": 51.150541947100002, "year": "2009-01-01", "lon": 0.51215929600999999, "name": "Maidstone & The Weald", "slug": "maidstone-the-weald"}}, {"pk": 307, "model": "signup.constituency", "fields": {"lat": 53.519076517800002, "year": "2009-01-01", "lon": -2.6513426267, "name": "Makerfield", "slug": "makerfield"}}, {"pk": 308, "model": "signup.constituency", "fields": {"lat": 51.7252482078, "year": "2009-01-01", "lon": 0.71860236277300005, "name": "Maldon & East Chelmsford", "slug": "maldon-east-chelmsford"}}, {"pk": 309, "model": "signup.constituency", "fields": {"lat": 53.473185001700003, "year": "2009-01-01", "lon": -2.2137492889699999, "name": "Manchester Central", "slug": "manchester-central"}}, {"pk": 310, "model": "signup.constituency", "fields": {"lat": 53.515875207199997, "year": "2009-01-01", "lon": -2.2116788429600001, "name": "Manchester, Blackley", "slug": "manchester-blackley"}}, {"pk": 311, "model": "signup.constituency", "fields": {"lat": 53.4523805404, "year": "2009-01-01", "lon": -2.2025105973799999, "name": "Manchester, Gorton", "slug": "manchester-gorton"}}, {"pk": 312, "model": "signup.constituency", "fields": {"lat": 53.4255971941, "year": "2009-01-01", "lon": -2.2457184564200001, "name": "Manchester, Withington", "slug": "manchester-withington"}}, {"pk": 313, "model": "signup.constituency", "fields": {"lat": 53.149494623599999, "year": "2009-01-01", "lon": -1.1857325493299999, "name": "Mansfield", "slug": "mansfield"}}, {"pk": 314, "model": "signup.constituency", "fields": {"lat": 51.422078701300002, "year": "2009-01-01", "lon": 0.56931530296300004, "name": "Medway", "slug": "medway"}}, {"pk": 315, "model": "signup.constituency", "fields": {"lat": 52.890268291799998, "year": "2009-01-01", "lon": -3.7975452770000002, "name": "Meirionnydd Nant Conwy", "slug": "meirionnydd-nant-conwy"}}, {"pk": 316, "model": "signup.constituency", "fields": {"lat": 52.431008177899997, "year": "2009-01-01", "lon": -1.7323831843199999, "name": "Meriden", "slug": "meriden"}}, {"pk": 317, "model": "signup.constituency", "fields": {"lat": 51.740279680699999, "year": "2009-01-01", "lon": -3.3341715356899999, "name": "Merthyr Tydfil & Rhymney", "slug": "merthyr-tydfil-rhymney"}}, {"pk": 318, "model": "signup.constituency", "fields": {"lat": 52.042535882400003, "year": "2009-01-01", "lon": -0.46716928619800002, "name": "Mid Bedfordshire", "slug": "mid-bedfordshire"}}, {"pk": 319, "model": "signup.constituency", "fields": {"lat": 50.739237035599999, "year": "2009-01-01", "lon": -2.08768356706, "name": "Mid Dorset & North Poole", "slug": "mid-dorset-north-poole"}}, {"pk": 320, "model": "signup.constituency", "fields": {"lat": 52.698189765400002, "year": "2009-01-01", "lon": 1.1753474751499999, "name": "Mid Norfolk", "slug": "mid-norfolk"}}, {"pk": 321, "model": "signup.constituency", "fields": {"lat": 51.041322266000002, "year": "2009-01-01", "lon": -0.078198437145499997, "name": "Mid Sussex", "slug": "mid-sussex"}}, {"pk": 323, "model": "signup.constituency", "fields": {"lat": 52.184158571099999, "year": "2009-01-01", "lon": -2.0161810420299999, "name": "Mid Worcestershire", "slug": "mid-worcestershire"}}, {"pk": 324, "model": "signup.constituency", "fields": {"lat": 54.558837757500001, "year": "2009-01-01", "lon": -1.22575823183, "name": "Middlesbrough", "slug": "middlesbrough"}}, {"pk": 325, "model": "signup.constituency", "fields": {"lat": 54.540385711900001, "year": "2009-01-01", "lon": -1.0365991244399999, "name": "Middlesbrough South & East Cleveland", "slug": "middlesbrough-south-east-cleveland"}}, {"pk": 326, "model": "signup.constituency", "fields": {"lat": 52.022268802600003, "year": "2009-01-01", "lon": -0.78827990897300004, "name": "Milton Keynes South West", "slug": "milton-keynes-south-west"}}, {"pk": 327, "model": "signup.constituency", "fields": {"lat": 51.404306847100003, "year": "2009-01-01", "lon": -0.179867397082, "name": "Mitcham & Morden", "slug": "mitcham-morden"}}, {"pk": 328, "model": "signup.constituency", "fields": {"lat": 51.217133005400001, "year": "2009-01-01", "lon": -0.363004971003, "name": "Mole Valley", "slug": "mole-valley"}}, {"pk": 329, "model": "signup.constituency", "fields": {"lat": 51.773589625699998, "year": "2009-01-01", "lon": -2.90266762085, "name": "Monmouth", "slug": "monmouth"}}, {"pk": 330, "model": "signup.constituency", "fields": {"lat": 52.617597531500003, "year": "2009-01-01", "lon": -3.4451597008400001, "name": "Montgomeryshire", "slug": "montgomeryshire"}}, {"pk": 331, "model": "signup.constituency", "fields": {"lat": 54.1063771042, "year": "2009-01-01", "lon": -2.7218953020000001, "name": "Morecambe & Lunesdale", "slug": "morecambe-lunesdale"}}, {"pk": 332, "model": "signup.constituency", "fields": {"lat": 53.7345715091, "year": "2009-01-01", "lon": -1.5477980787500001, "name": "Morley & Rothwell", "slug": "morley-rothwell"}}, {"pk": 333, "model": "signup.constituency", "fields": {"lat": 51.720003996499997, "year": "2009-01-01", "lon": -3.7564401053199998, "name": "Neath", "slug": "neath"}}, {"pk": 334, "model": "signup.constituency", "fields": {"lat": 50.855989595799997, "year": "2009-01-01", "lon": -1.49871006997, "name": "New Forest East", "slug": "new-forest-east"}}, {"pk": 335, "model": "signup.constituency", "fields": {"lat": 50.857776974099998, "year": "2009-01-01", "lon": -1.7350566381999999, "name": "New Forest West", "slug": "new-forest-west"}}, {"pk": 336, "model": "signup.constituency", "fields": {"lat": 53.1540082717, "year": "2009-01-01", "lon": -0.854695011713, "name": "Newark", "slug": "newark"}}, {"pk": 337, "model": "signup.constituency", "fields": {"lat": 51.445933375999999, "year": "2009-01-01", "lon": -1.33148541539, "name": "Newbury", "slug": "newbury"}}, {"pk": 338, "model": "signup.constituency", "fields": {"lat": 54.991226287499998, "year": "2009-01-01", "lon": -1.6370725104599999, "name": "Newcastle upon Tyne Central", "slug": "newcastle-upon-tyne-central"}}, {"pk": 339, "model": "signup.constituency", "fields": {"lat": 54.987279106000003, "year": "2009-01-01", "lon": -1.5533076649699999, "name": "Newcastle upon Tyne East & Wallsend", "slug": "newcastle-upon-tyne-east-wallsend"}}, {"pk": 340, "model": "signup.constituency", "fields": {"lat": 55.023158384399999, "year": "2009-01-01", "lon": -1.6814176037999999, "name": "Newcastle upon Tyne North", "slug": "newcastle-upon-tyne-north"}}, {"pk": 341, "model": "signup.constituency", "fields": {"lat": 53.029346588300001, "year": "2009-01-01", "lon": -2.29434701413, "name": "Newcastle-under-Lyme", "slug": "newcastle-under-lyme"}}, {"pk": 342, "model": "signup.constituency", "fields": {"lat": 51.579903503700002, "year": "2009-01-01", "lon": -2.85894444923, "name": "Newport East", "slug": "newport-east"}}, {"pk": 343, "model": "signup.constituency", "fields": {"lat": 51.562277705500001, "year": "2009-01-01", "lon": -3.01317012723, "name": "Newport West", "slug": "newport-west"}}, {"pk": 345, "model": "signup.constituency", "fields": {"lat": 53.688774655000003, "year": "2009-01-01", "lon": -1.50278204247, "name": "Normanton", "slug": "normanton"}}, {"pk": 347, "model": "signup.constituency", "fields": {"lat": 50.633721750200003, "year": "2009-01-01", "lon": -4.7270636940899999, "name": "North Cornwall", "slug": "north-cornwall"}}, {"pk": 348, "model": "signup.constituency", "fields": {"lat": 51.021748914299998, "year": "2009-01-01", "lon": -3.9249030565199998, "name": "North Devon", "slug": "north-devon"}}, {"pk": 349, "model": "signup.constituency", "fields": {"lat": 50.9188752851, "year": "2009-01-01", "lon": -2.1456789505699998, "name": "North Dorset", "slug": "north-dorset"}}, {"pk": 351, "model": "signup.constituency", "fields": {"lat": 54.8604362831, "year": "2009-01-01", "lon": -1.6386466448799999, "name": "North Durham", "slug": "north-durham"}}, {"pk": 352, "model": "signup.constituency", "fields": {"lat": 52.1518433906, "year": "2009-01-01", "lon": -0.40634171698999999, "name": "North East Bedfordshire", "slug": "north-east-bedfordshire"}}, {"pk": 353, "model": "signup.constituency", "fields": {"lat": 52.547661016900001, "year": "2009-01-01", "lon": 0.081424492031399995, "name": "North East Cambridgeshire", "slug": "north-east-cambridgeshire"}}, {"pk": 354, "model": "signup.constituency", "fields": {"lat": 53.230865219499996, "year": "2009-01-01", "lon": -1.44164418593, "name": "North East Derbyshire", "slug": "north-east-derbyshire"}}, {"pk": 355, "model": "signup.constituency", "fields": {"lat": 51.211617662899997, "year": "2009-01-01", "lon": -0.87296130157499996, "name": "North East Hampshire", "slug": "north-east-hampshire"}}, {"pk": 356, "model": "signup.constituency", "fields": {"lat": 51.924066068000002, "year": "2009-01-01", "lon": -0.066811816898400003, "name": "North East Hertfordshire", "slug": "north-east-hertfordshire"}}, {"pk": 357, "model": "signup.constituency", "fields": {"lat": 52.083558914500003, "year": "2009-01-01", "lon": -0.74041448712699998, "name": "North East Milton Keynes", "slug": "north-east-milton-keynes"}}, {"pk": 358, "model": "signup.constituency", "fields": {"lat": 51.871288087899998, "year": "2009-01-01", "lon": 0.93863165427200002, "name": "North Essex", "slug": "north-essex"}}, {"pk": 359, "model": "signup.constituency", "fields": {"lat": 52.836608579299998, "year": "2009-01-01", "lon": 1.1972184643999999, "name": "North Norfolk", "slug": "north-norfolk"}}, {"pk": 360, "model": "signup.constituency", "fields": {"lat": 52.865696313199997, "year": "2009-01-01", "lon": -2.7688529399299999, "name": "North Shropshire", "slug": "north-shropshire"}}, {"pk": 361, "model": "signup.constituency", "fields": {"lat": 51.493948949100002, "year": "2009-01-01", "lon": -0.070647778206999995, "name": "North Southwark & Bermondsey", "slug": "north-southwark-bermondsey"}}, {"pk": 362, "model": "signup.constituency", "fields": {"lat": 51.629073200800001, "year": "2009-01-01", "lon": -1.7823656671400001, "name": "North Swindon", "slug": "north-swindon"}}, {"pk": 363, "model": "signup.constituency", "fields": {"lat": 51.362219404800001, "year": "2009-01-01", "lon": 1.2549939667100001, "name": "North Thanet", "slug": "north-thanet"}}, {"pk": 364, "model": "signup.constituency", "fields": {"lat": 55.026611737000003, "year": "2009-01-01", "lon": -1.5407044728299999, "name": "North Tyneside", "slug": "north-tyneside"}}, {"pk": 365, "model": "signup.constituency", "fields": {"lat": 52.561332352699999, "year": "2009-01-01", "lon": -1.62054911763, "name": "North Warwickshire", "slug": "north-warwickshire"}}, {"pk": 366, "model": "signup.constituency", "fields": {"lat": 52.502694826199999, "year": "2009-01-01", "lon": -0.221178809831, "name": "North West Cambridgeshire", "slug": "north-west-cambridgeshire"}}, {"pk": 367, "model": "signup.constituency", "fields": {"lat": 54.7942512463, "year": "2009-01-01", "lon": -1.9823713924999999, "name": "North West Durham", "slug": "north-west-durham"}}, {"pk": 368, "model": "signup.constituency", "fields": {"lat": 51.259267954199998, "year": "2009-01-01", "lon": -1.38206666475, "name": "North West Hampshire", "slug": "north-west-hampshire"}}, {"pk": 369, "model": "signup.constituency", "fields": {"lat": 52.770753281499999, "year": "2009-01-01", "lon": -1.42172813341, "name": "North West Leicestershire", "slug": "north-west-leicestershire"}}, {"pk": 370, "model": "signup.constituency", "fields": {"lat": 52.806458101799997, "year": "2009-01-01", "lon": 0.48781218149099997, "name": "North West Norfolk", "slug": "north-west-norfolk"}}, {"pk": 371, "model": "signup.constituency", "fields": {"lat": 51.5348415765, "year": "2009-01-01", "lon": -2.0736989394699998, "name": "North Wiltshire", "slug": "north-wiltshire"}}, {"pk": 372, "model": "signup.constituency", "fields": {"lat": 52.261156311599997, "year": "2009-01-01", "lon": -0.87890256175399994, "name": "Northampton North", "slug": "northampton-north"}}, {"pk": 373, "model": "signup.constituency", "fields": {"lat": 52.194532747499998, "year": "2009-01-01", "lon": -0.86006967979500004, "name": "Northampton South", "slug": "northampton-south"}}, {"pk": 374, "model": "signup.constituency", "fields": {"lat": 51.552264960199999, "year": "2009-01-01", "lon": -2.4813343973099999, "name": "Northavon", "slug": "northavon"}}, {"pk": 375, "model": "signup.constituency", "fields": {"lat": 52.663264690399998, "year": "2009-01-01", "lon": 1.2676242526799999, "name": "Norwich North", "slug": "norwich-north"}}, {"pk": 376, "model": "signup.constituency", "fields": {"lat": 52.604760724999998, "year": "2009-01-01", "lon": 1.37070607845, "name": "Norwich South", "slug": "norwich-south"}}, {"pk": 377, "model": "signup.constituency", "fields": {"lat": 52.968366801800002, "year": "2009-01-01", "lon": -1.1343705716300001, "name": "Nottingham East", "slug": "nottingham-east"}}, {"pk": 378, "model": "signup.constituency", "fields": {"lat": 52.984340850000002, "year": "2009-01-01", "lon": -1.1953989571600001, "name": "Nottingham North", "slug": "nottingham-north"}}, {"pk": 379, "model": "signup.constituency", "fields": {"lat": 52.935308624000001, "year": "2009-01-01", "lon": -1.19088589664, "name": "Nottingham South", "slug": "nottingham-south"}}, {"pk": 380, "model": "signup.constituency", "fields": {"lat": 52.459822080599999, "year": "2009-01-01", "lon": -1.39663686976, "name": "Nuneaton", "slug": "nuneaton"}}, {"pk": 381, "model": "signup.constituency", "fields": {"lat": 51.575400218799999, "year": "2009-01-01", "lon": -3.54288342079, "name": "Ogmore", "slug": "ogmore"}}, {"pk": 382, "model": "signup.constituency", "fields": {"lat": 51.442405848200004, "year": "2009-01-01", "lon": 0.123025201502, "name": "Old Bexley & Sidcup", "slug": "old-bexley-sidcup"}}, {"pk": 383, "model": "signup.constituency", "fields": {"lat": 53.567436664600002, "year": "2009-01-01", "lon": -2.0187624355199998, "name": "Oldham East & Saddleworth", "slug": "oldham-east-saddleworth"}}, {"pk": 384, "model": "signup.constituency", "fields": {"lat": 53.546049934300001, "year": "2009-01-01", "lon": -2.1385293984199998, "name": "Oldham West & Royton", "slug": "oldham-west-royton"}}, {"pk": 385, "model": "signup.constituency", "fields": {"lat": 59.769314028700002, "year": "2009-01-01", "lon": -2.6560747704600001, "name": "Orkney & Shetland", "slug": "orkney-shetland"}}, {"pk": 386, "model": "signup.constituency", "fields": {"lat": 51.352424102800001, "year": "2009-01-01", "lon": 0.0788926194099, "name": "Orpington", "slug": "orpington"}}, {"pk": 387, "model": "signup.constituency", "fields": {"lat": 51.748481198699999, "year": "2009-01-01", "lon": -1.2212917973099999, "name": "Oxford East", "slug": "oxford-east"}}, {"pk": 388, "model": "signup.constituency", "fields": {"lat": 51.747574816300002, "year": "2009-01-01", "lon": -1.29660574553, "name": "Oxford West & Abingdon", "slug": "oxford-west-abingdon"}}, {"pk": 389, "model": "signup.constituency", "fields": {"lat": 53.878918868299998, "year": "2009-01-01", "lon": -2.1895323946900001, "name": "Pendle", "slug": "pendle"}}, {"pk": 390, "model": "signup.constituency", "fields": {"lat": 54.770829333999998, "year": "2009-01-01", "lon": -2.7469298236599999, "name": "Penrith & The Border", "slug": "penrith-the-border"}}, {"pk": 391, "model": "signup.constituency", "fields": {"lat": 52.596228260300002, "year": "2009-01-01", "lon": -0.24054815939900001, "name": "Peterborough", "slug": "peterborough"}}, {"pk": 392, "model": "signup.constituency", "fields": {"lat": 50.407899109100001, "year": "2009-01-01", "lon": -4.1413644122199997, "name": "Plymouth, Devonport", "slug": "plymouth-devonport"}}, {"pk": 393, "model": "signup.constituency", "fields": {"lat": 50.368104050600003, "year": "2009-01-01", "lon": -4.1339526038800001, "name": "Plymouth, Sutton", "slug": "plymouth-sutton"}}, {"pk": 394, "model": "signup.constituency", "fields": {"lat": 53.693734009300002, "year": "2009-01-01", "lon": -1.30758160832, "name": "Pontefract & Castleford", "slug": "pontefract-castleford"}}, {"pk": 395, "model": "signup.constituency", "fields": {"lat": 51.567945080500003, "year": "2009-01-01", "lon": -3.3481961195699999, "name": "Pontypridd", "slug": "pontypridd"}}, {"pk": 396, "model": "signup.constituency", "fields": {"lat": 50.716474140300001, "year": "2009-01-01", "lon": -1.9669371584099999, "name": "Poole", "slug": "poole"}}, {"pk": 397, "model": "signup.constituency", "fields": {"lat": 51.507178418800002, "year": "2009-01-01", "lon": 0.0036299256120900002, "name": "Poplar & Canning Town", "slug": "poplar-canning-town"}}, {"pk": 398, "model": "signup.constituency", "fields": {"lat": 50.833421612800002, "year": "2009-01-01", "lon": -1.0967792097, "name": "Portsmouth North", "slug": "portsmouth-north"}}, {"pk": 399, "model": "signup.constituency", "fields": {"lat": 50.781242609800003, "year": "2009-01-01", "lon": -1.0770893052899999, "name": "Portsmouth South", "slug": "portsmouth-south"}}, {"pk": 400, "model": "signup.constituency", "fields": {"lat": 51.895762142999999, "year": "2009-01-01", "lon": -5.0827840495099998, "name": "Preseli Pembrokeshire", "slug": "preseli-pembrokeshire"}}, {"pk": 401, "model": "signup.constituency", "fields": {"lat": 53.753565029699999, "year": "2009-01-01", "lon": -2.6929488324099999, "name": "Preston", "slug": "preston"}}, {"pk": 402, "model": "signup.constituency", "fields": {"lat": 53.838012267899998, "year": "2009-01-01", "lon": -1.7083772323699999, "name": "Pudsey", "slug": "pudsey"}}, {"pk": 403, "model": "signup.constituency", "fields": {"lat": 51.452447341599999, "year": "2009-01-01", "lon": -0.22440674526500001, "name": "Putney", "slug": "putney"}}, {"pk": 404, "model": "signup.constituency", "fields": {"lat": 51.630981305500001, "year": "2009-01-01", "lon": 0.65931271943799996, "name": "Rayleigh", "slug": "rayleigh"}}, {"pk": 405, "model": "signup.constituency", "fields": {"lat": 51.456059343299998, "year": "2009-01-01", "lon": -0.94291490179799997, "name": "Reading East", "slug": "reading-east"}}, {"pk": 406, "model": "signup.constituency", "fields": {"lat": 51.451141501199999, "year": "2009-01-01", "lon": -1.04206196487, "name": "Reading West", "slug": "reading-west"}}, {"pk": 407, "model": "signup.constituency", "fields": {"lat": 54.586065536299998, "year": "2009-01-01", "lon": -1.09297141644, "name": "Redcar", "slug": "redcar"}}, {"pk": 408, "model": "signup.constituency", "fields": {"lat": 52.259642078699997, "year": "2009-01-01", "lon": -1.95314220172, "name": "Redditch", "slug": "redditch"}}, {"pk": 409, "model": "signup.constituency", "fields": {"lat": 51.523789557400001, "year": "2009-01-01", "lon": -0.188105364749, "name": "Regent's Park & Kensington North", "slug": "regent-s-park-kensington-north"}}, {"pk": 410, "model": "signup.constituency", "fields": {"lat": 51.257892422300003, "year": "2009-01-01", "lon": -0.19952290910500001, "name": "Reigate", "slug": "reigate"}}, {"pk": 411, "model": "signup.constituency", "fields": {"lat": 51.6549316053, "year": "2009-01-01", "lon": -3.4833696861600001, "name": "Rhondda", "slug": "rhondda"}}, {"pk": 412, "model": "signup.constituency", "fields": {"lat": 53.887615957800001, "year": "2009-01-01", "lon": -2.46854453526, "name": "Ribble Valley", "slug": "ribble-valley"}}, {"pk": 413, "model": "signup.constituency", "fields": {"lat": 54.357151765600001, "year": "2009-01-01", "lon": -1.6711996206899999, "name": "Richmond (Yorks)", "slug": "richmond-yorks"}}, {"pk": 414, "model": "signup.constituency", "fields": {"lat": 51.446298273499998, "year": "2009-01-01", "lon": -0.27671169558000003, "name": "Richmond Park", "slug": "richmond-park"}}, {"pk": 415, "model": "signup.constituency", "fields": {"lat": 53.634025207900002, "year": "2009-01-01", "lon": -2.1213518110999998, "name": "Rochdale", "slug": "rochdale"}}, {"pk": 416, "model": "signup.constituency", "fields": {"lat": 51.583167926100003, "year": "2009-01-01", "lon": 0.85928475788199998, "name": "Rochford & Southend East", "slug": "rochford-southend-east"}}, {"pk": 417, "model": "signup.constituency", "fields": {"lat": 51.593356486499999, "year": "2009-01-01", "lon": 0.19452996885500001, "name": "Romford", "slug": "romford"}}, {"pk": 418, "model": "signup.constituency", "fields": {"lat": 51.076144333199998, "year": "2009-01-01", "lon": -1.4870265899899999, "name": "Romsey", "slug": "romsey"}}, {"pk": 419, "model": "signup.constituency", "fields": {"lat": 53.684570730899999, "year": "2009-01-01", "lon": -2.33885696233, "name": "Rossendale & Darwen", "slug": "rossendale-darwen"}}, {"pk": 420, "model": "signup.constituency", "fields": {"lat": 53.369547001000001, "year": "2009-01-01", "lon": -1.25369755515, "name": "Rother Valley", "slug": "rother-valley"}}, {"pk": 421, "model": "signup.constituency", "fields": {"lat": 53.435386311499997, "year": "2009-01-01", "lon": -1.37729974269, "name": "Rotherham", "slug": "rotherham"}}, {"pk": 422, "model": "signup.constituency", "fields": {"lat": 52.3453496642, "year": "2009-01-01", "lon": -1.4095159000099999, "name": "Rugby & Kenilworth", "slug": "rugby-kenilworth"}}, {"pk": 423, "model": "signup.constituency", "fields": {"lat": 51.585687477800001, "year": "2009-01-01", "lon": -0.43916859344499998, "name": "Ruislip - Northwood", "slug": "ruislip-northwood"}}, {"pk": 424, "model": "signup.constituency", "fields": {"lat": 51.389072762799998, "year": "2009-01-01", "lon": -0.52094043297600001, "name": "Runnymede & Weybridge", "slug": "runnymede-weybridge"}}, {"pk": 425, "model": "signup.constituency", "fields": {"lat": 52.9126704476, "year": "2009-01-01", "lon": -1.0457998876800001, "name": "Rushcliffe", "slug": "rushcliffe"}}, {"pk": 426, "model": "signup.constituency", "fields": {"lat": 52.744039306399998, "year": "2009-01-01", "lon": -0.747523405995, "name": "Rutland & Melton", "slug": "rutland-melton"}}, {"pk": 427, "model": "signup.constituency", "fields": {"lat": 54.181866864200003, "year": "2009-01-01", "lon": -0.74012621570100001, "name": "Ryedale", "slug": "ryedale"}}, {"pk": 428, "model": "signup.constituency", "fields": {"lat": 51.9291662161, "year": "2009-01-01", "lon": 0.42229333501799998, "name": "Saffron Walden", "slug": "saffron-walden"}}, {"pk": 429, "model": "signup.constituency", "fields": {"lat": 53.491584670800002, "year": "2009-01-01", "lon": -2.2880362012000002, "name": "Salford", "slug": "salford"}}, {"pk": 430, "model": "signup.constituency", "fields": {"lat": 51.0984721401, "year": "2009-01-01", "lon": -1.89286117864, "name": "Salisbury", "slug": "salisbury"}}, {"pk": 431, "model": "signup.constituency", "fields": {"lat": 54.377566829199999, "year": "2009-01-01", "lon": -0.68092997148000001, "name": "Scarborough & Whitby", "slug": "scarborough-whitby"}}, {"pk": 432, "model": "signup.constituency", "fields": {"lat": 53.5380691716, "year": "2009-01-01", "lon": -0.57166867106599994, "name": "Scunthorpe", "slug": "scunthorpe"}}, {"pk": 433, "model": "signup.constituency", "fields": {"lat": 54.603925738299999, "year": "2009-01-01", "lon": -1.4924870831999999, "name": "Sedgefield", "slug": "sedgefield"}}, {"pk": 434, "model": "signup.constituency", "fields": {"lat": 53.806756673499997, "year": "2009-01-01", "lon": -1.1274244769199999, "name": "Selby", "slug": "selby"}}, {"pk": 435, "model": "signup.constituency", "fields": {"lat": 51.317701773700001, "year": "2009-01-01", "lon": 0.19356240094900001, "name": "Sevenoaks", "slug": "sevenoaks"}}, {"pk": 436, "model": "signup.constituency", "fields": {"lat": 53.379690387499998, "year": "2009-01-01", "lon": -1.4584160363600001, "name": "Sheffield Central", "slug": "sheffield-central"}}, {"pk": 437, "model": "signup.constituency", "fields": {"lat": 53.370240970899999, "year": "2009-01-01", "lon": -1.38290069, "name": "Sheffield, Attercliffe", "slug": "sheffield-attercliffe"}}, {"pk": 438, "model": "signup.constituency", "fields": {"lat": 53.419699523799999, "year": "2009-01-01", "lon": -1.46522383006, "name": "Sheffield, Brightside", "slug": "sheffield-brightside"}}, {"pk": 439, "model": "signup.constituency", "fields": {"lat": 53.348002123199997, "year": "2009-01-01", "lon": -1.57266472907, "name": "Sheffield, Hallam", "slug": "sheffield-hallam"}}, {"pk": 440, "model": "signup.constituency", "fields": {"lat": 53.345656981600001, "year": "2009-01-01", "lon": -1.4555876913900001, "name": "Sheffield, Heeley", "slug": "sheffield-heeley"}}, {"pk": 441, "model": "signup.constituency", "fields": {"lat": 53.434810463399998, "year": "2009-01-01", "lon": -1.6175323849500001, "name": "Sheffield, Hillsborough", "slug": "sheffield-hillsborough"}}, {"pk": 442, "model": "signup.constituency", "fields": {"lat": 53.123807454599998, "year": "2009-01-01", "lon": -1.09039561168, "name": "Sherwood", "slug": "sherwood"}}, {"pk": 443, "model": "signup.constituency", "fields": {"lat": 53.852803033400001, "year": "2009-01-01", "lon": -1.8273581267200001, "name": "Shipley", "slug": "shipley"}}, {"pk": 444, "model": "signup.constituency", "fields": {"lat": 52.663143941100003, "year": "2009-01-01", "lon": -2.7737601893899999, "name": "Shrewsbury & Atcham", "slug": "shrewsbury-atcham"}}, {"pk": 445, "model": "signup.constituency", "fields": {"lat": 51.362649051200002, "year": "2009-01-01", "lon": 0.78329398628299995, "name": "Sittingbourne & Sheppey", "slug": "sittingbourne-sheppey"}}, {"pk": 446, "model": "signup.constituency", "fields": {"lat": 54.056074865299998, "year": "2009-01-01", "lon": -1.9959805238999999, "name": "Skipton & Ripon", "slug": "skipton-ripon"}}, {"pk": 447, "model": "signup.constituency", "fields": {"lat": 53.0721413371, "year": "2009-01-01", "lon": -0.494693436677, "name": "Sleaford & North Hykeham", "slug": "sleaford-north-hykeham"}}, {"pk": 448, "model": "signup.constituency", "fields": {"lat": 51.515097863400001, "year": "2009-01-01", "lon": -0.59318952407900005, "name": "Slough", "slug": "slough"}}, {"pk": 449, "model": "signup.constituency", "fields": {"lat": 52.419011095899997, "year": "2009-01-01", "lon": -1.8014070469400001, "name": "Solihull", "slug": "solihull"}}, {"pk": 450, "model": "signup.constituency", "fields": {"lat": 51.132819198500002, "year": "2009-01-01", "lon": -2.6160206984199998, "name": "Somerton & Frome", "slug": "somerton-frome"}}, {"pk": 452, "model": "signup.constituency", "fields": {"lat": 52.164476931400003, "year": "2009-01-01", "lon": -0.010004263142500001, "name": "South Cambridgeshire", "slug": "south-cambridgeshire"}}, {"pk": 453, "model": "signup.constituency", "fields": {"lat": 52.822018988899998, "year": "2009-01-01", "lon": -1.5349717466099999, "name": "South Derbyshire", "slug": "south-derbyshire"}}, {"pk": 454, "model": "signup.constituency", "fields": {"lat": 50.637432244400003, "year": "2009-01-01", "lon": -2.2134220292700002, "name": "South Dorset", "slug": "south-dorset"}}, {"pk": 456, "model": "signup.constituency", "fields": {"lat": 52.240734091, "year": "2009-01-01", "lon": 0.25341869489399999, "name": "South East Cambridgeshire", "slug": "south-east-cambridgeshire"}}, {"pk": 457, "model": "signup.constituency", "fields": {"lat": 50.453454178900003, "year": "2009-01-01", "lon": -4.4879079007899998, "name": "South East Cornwall", "slug": "south-east-cornwall"}}, {"pk": 458, "model": "signup.constituency", "fields": {"lat": 52.812393139999998, "year": "2009-01-01", "lon": -0.043526687879999998, "name": "South Holland & The Deepings", "slug": "south-holland-the-deepings"}}, {"pk": 459, "model": "signup.constituency", "fields": {"lat": 52.513848378600002, "year": "2009-01-01", "lon": 1.3135574155400001, "name": "South Norfolk", "slug": "south-norfolk"}}, {"pk": 460, "model": "signup.constituency", "fields": {"lat": 53.689045824099999, "year": "2009-01-01", "lon": -2.87012755709, "name": "South Ribble", "slug": "south-ribble"}}, {"pk": 461, "model": "signup.constituency", "fields": {"lat": 54.982210434999999, "year": "2009-01-01", "lon": -1.4224079601099999, "name": "South Shields", "slug": "south-shields"}}, {"pk": 462, "model": "signup.constituency", "fields": {"lat": 52.564985267799997, "year": "2009-01-01", "lon": -2.1544917622000002, "name": "South Staffordshire", "slug": "south-staffordshire"}}, {"pk": 463, "model": "signup.constituency", "fields": {"lat": 52.062472404700003, "year": "2009-01-01", "lon": 0.91765400463500002, "name": "South Suffolk", "slug": "south-suffolk"}}, {"pk": 464, "model": "signup.constituency", "fields": {"lat": 51.544213775199999, "year": "2009-01-01", "lon": -1.7338917196900001, "name": "South Swindon", "slug": "south-swindon"}}, {"pk": 465, "model": "signup.constituency", "fields": {"lat": 51.307815763699999, "year": "2009-01-01", "lon": 1.3213983550499999, "name": "South Thanet", "slug": "south-thanet"}}, {"pk": 466, "model": "signup.constituency", "fields": {"lat": 51.886713320799998, "year": "2009-01-01", "lon": -0.58632432042100002, "name": "South West Bedfordshire", "slug": "south-west-bedfordshire"}}, {"pk": 467, "model": "signup.constituency", "fields": {"lat": 50.398722387699998, "year": "2009-01-01", "lon": -4.0014008890000001, "name": "South West Devon", "slug": "south-west-devon"}}, {"pk": 468, "model": "signup.constituency", "fields": {"lat": 51.728417393400001, "year": "2009-01-01", "lon": -0.56175504455699998, "name": "South West Hertfordshire", "slug": "south-west-hertfordshire"}}, {"pk": 469, "model": "signup.constituency", "fields": {"lat": 52.549123332900002, "year": "2009-01-01", "lon": 0.63354446407099996, "name": "South West Norfolk", "slug": "south-west-norfolk"}}, {"pk": 470, "model": "signup.constituency", "fields": {"lat": 51.157410802699999, "year": "2009-01-01", "lon": -0.67066311981399995, "name": "South West Surrey", "slug": "south-west-surrey"}}, {"pk": 471, "model": "signup.constituency", "fields": {"lat": 50.909276808900003, "year": "2009-01-01", "lon": -1.3827248892699999, "name": "Southampton, Itchen", "slug": "southampton-itchen"}}, {"pk": 472, "model": "signup.constituency", "fields": {"lat": 50.926240389599997, "year": "2009-01-01", "lon": -1.4279872195600001, "name": "Southampton, Test", "slug": "southampton-test"}}, {"pk": 473, "model": "signup.constituency", "fields": {"lat": 51.550517871499999, "year": "2009-01-01", "lon": 0.66553823032299997, "name": "Southend West", "slug": "southend-west"}}, {"pk": 474, "model": "signup.constituency", "fields": {"lat": 53.644538415, "year": "2009-01-01", "lon": -3.0191110316900001, "name": "Southport", "slug": "southport"}}, {"pk": 475, "model": "signup.constituency", "fields": {"lat": 51.424596829099997, "year": "2009-01-01", "lon": -0.46224826214199999, "name": "Spelthorne", "slug": "spelthorne"}}, {"pk": 476, "model": "signup.constituency", "fields": {"lat": 51.733713864099997, "year": "2009-01-01", "lon": -0.34591227698100002, "name": "St Albans", "slug": "st-albans"}}, {"pk": 477, "model": "signup.constituency", "fields": {"lat": 53.482927544699997, "year": "2009-01-01", "lon": -2.7010622391500001, "name": "St Helens North", "slug": "st-helens-north"}}, {"pk": 478, "model": "signup.constituency", "fields": {"lat": 53.428359036700002, "year": "2009-01-01", "lon": -2.7349354640399999, "name": "St Helens South", "slug": "st-helens-south"}}, {"pk": 479, "model": "signup.constituency", "fields": {"lat": 50.060263092900001, "year": "2009-01-01", "lon": -5.7457583640300003, "name": "St Ives", "slug": "st-ives"}}, {"pk": 480, "model": "signup.constituency", "fields": {"lat": 52.763736860800002, "year": "2009-01-01", "lon": -2.13462500803, "name": "Stafford", "slug": "stafford"}}, {"pk": 481, "model": "signup.constituency", "fields": {"lat": 53.0987114797, "year": "2009-01-01", "lon": -2.0290621548100001, "name": "Staffordshire Moorlands", "slug": "staffordshire-moorlands"}}, {"pk": 482, "model": "signup.constituency", "fields": {"lat": 53.478645043599997, "year": "2009-01-01", "lon": -2.0314314167999998, "name": "Stalybridge & Hyde", "slug": "stalybridge-hyde"}}, {"pk": 483, "model": "signup.constituency", "fields": {"lat": 51.882707776399997, "year": "2009-01-01", "lon": -0.17023221757900001, "name": "Stevenage", "slug": "stevenage"}}, {"pk": 484, "model": "signup.constituency", "fields": {"lat": 53.408697224299999, "year": "2009-01-01", "lon": -2.1690227709199998, "name": "Stockport", "slug": "stockport"}}, {"pk": 485, "model": "signup.constituency", "fields": {"lat": 54.604560811100001, "year": "2009-01-01", "lon": -1.30324471558, "name": "Stockton North", "slug": "stockton-north"}}, {"pk": 486, "model": "signup.constituency", "fields": {"lat": 54.526449247899997, "year": "2009-01-01", "lon": -1.34185309483, "name": "Stockton South", "slug": "stockton-south"}}, {"pk": 487, "model": "signup.constituency", "fields": {"lat": 53.025242405199997, "year": "2009-01-01", "lon": -2.16031218451, "name": "Stoke-on-Trent Central", "slug": "stoke-on-trent-central"}}, {"pk": 488, "model": "signup.constituency", "fields": {"lat": 53.063618122100003, "year": "2009-01-01", "lon": -2.1573853288899998, "name": "Stoke-on-Trent North", "slug": "stoke-on-trent-north"}}, {"pk": 489, "model": "signup.constituency", "fields": {"lat": 52.976985126499997, "year": "2009-01-01", "lon": -2.1458707077199999, "name": "Stoke-on-Trent South", "slug": "stoke-on-trent-south"}}, {"pk": 490, "model": "signup.constituency", "fields": {"lat": 52.887310760200002, "year": "2009-01-01", "lon": -2.1654198092899999, "name": "Stone", "slug": "stone"}}, {"pk": 491, "model": "signup.constituency", "fields": {"lat": 52.453466348200003, "year": "2009-01-01", "lon": -2.1234096770800002, "name": "Stourbridge", "slug": "stourbridge"}}, {"pk": 493, "model": "signup.constituency", "fields": {"lat": 52.137258775500001, "year": "2009-01-01", "lon": -1.59786667362, "name": "Stratford-on-Avon", "slug": "stratford-on-avon"}}, {"pk": 494, "model": "signup.constituency", "fields": {"lat": 51.4364882088, "year": "2009-01-01", "lon": -0.12549093281900001, "name": "Streatham", "slug": "streatham"}}, {"pk": 495, "model": "signup.constituency", "fields": {"lat": 53.445063832800003, "year": "2009-01-01", "lon": -2.35374956251, "name": "Stretford & Urmston", "slug": "stretford-urmston"}}, {"pk": 496, "model": "signup.constituency", "fields": {"lat": 51.7434252392, "year": "2009-01-01", "lon": -2.3051299491999999, "name": "Stroud", "slug": "stroud"}}, {"pk": 497, "model": "signup.constituency", "fields": {"lat": 52.176021996499998, "year": "2009-01-01", "lon": 1.44543922637, "name": "Suffolk Coastal", "slug": "suffolk-coastal"}}, {"pk": 498, "model": "signup.constituency", "fields": {"lat": 54.917740720200001, "year": "2009-01-01", "lon": -1.40838585333, "name": "Sunderland North", "slug": "sunderland-north"}}, {"pk": 499, "model": "signup.constituency", "fields": {"lat": 54.886224893399998, "year": "2009-01-01", "lon": -1.4051967059299999, "name": "Sunderland South", "slug": "sunderland-south"}}, {"pk": 500, "model": "signup.constituency", "fields": {"lat": 51.3066738809, "year": "2009-01-01", "lon": -0.66300486947299997, "name": "Surrey Heath", "slug": "surrey-heath"}}, {"pk": 501, "model": "signup.constituency", "fields": {"lat": 51.359944888299999, "year": "2009-01-01", "lon": -0.211931801557, "name": "Sutton & Cheam", "slug": "sutton-cheam"}}, {"pk": 502, "model": "signup.constituency", "fields": {"lat": 52.5590921294, "year": "2009-01-01", "lon": -1.81015363473, "name": "Sutton Coldfield", "slug": "sutton-coldfield"}}, {"pk": 503, "model": "signup.constituency", "fields": {"lat": 51.6502925566, "year": "2009-01-01", "lon": -3.9222802300000001, "name": "Swansea East", "slug": "swansea-east"}}, {"pk": 504, "model": "signup.constituency", "fields": {"lat": 51.619991343000002, "year": "2009-01-01", "lon": -3.9891858137699998, "name": "Swansea West", "slug": "swansea-west"}}, {"pk": 505, "model": "signup.constituency", "fields": {"lat": 52.658433634600001, "year": "2009-01-01", "lon": -1.7512896179899999, "name": "Tamworth", "slug": "tamworth"}}, {"pk": 506, "model": "signup.constituency", "fields": {"lat": 53.279766281999997, "year": "2009-01-01", "lon": -2.38758377002, "name": "Tatton", "slug": "tatton"}}, {"pk": 507, "model": "signup.constituency", "fields": {"lat": 51.040252371800001, "year": "2009-01-01", "lon": -3.3589239867199998, "name": "Taunton", "slug": "taunton"}}, {"pk": 508, "model": "signup.constituency", "fields": {"lat": 50.612640132999999, "year": "2009-01-01", "lon": -3.6532204267399999, "name": "Teignbridge", "slug": "teignbridge"}}, {"pk": 509, "model": "signup.constituency", "fields": {"lat": 52.667286495299997, "year": "2009-01-01", "lon": -2.4593725234799999, "name": "Telford", "slug": "telford"}}, {"pk": 510, "model": "signup.constituency", "fields": {"lat": 51.935015733699998, "year": "2009-01-01", "lon": -2.0367670417000001, "name": "Tewkesbury", "slug": "tewkesbury"}}, {"pk": 511, "model": "signup.constituency", "fields": {"lat": 51.494471577799999, "year": "2009-01-01", "lon": 0.337116492707, "name": "Thurrock", "slug": "thurrock"}}, {"pk": 512, "model": "signup.constituency", "fields": {"lat": 50.855496593700003, "year": "2009-01-01", "lon": -3.47008898157, "name": "Tiverton & Honiton", "slug": "tiverton-honiton"}}, {"pk": 513, "model": "signup.constituency", "fields": {"lat": 51.241744713599999, "year": "2009-01-01", "lon": 0.24373245589600001, "name": "Tonbridge & Malling", "slug": "tonbridge-malling"}}, {"pk": 514, "model": "signup.constituency", "fields": {"lat": 51.438620548400003, "year": "2009-01-01", "lon": -0.16434038603000001, "name": "Tooting", "slug": "tooting"}}, {"pk": 515, "model": "signup.constituency", "fields": {"lat": 50.449733411799997, "year": "2009-01-01", "lon": -3.5247012411599998, "name": "Torbay", "slug": "torbay"}}, {"pk": 516, "model": "signup.constituency", "fields": {"lat": 51.701662650499998, "year": "2009-01-01", "lon": -3.0555278554199998, "name": "Torfaen", "slug": "torfaen"}}, {"pk": 517, "model": "signup.constituency", "fields": {"lat": 50.820900803599997, "year": "2009-01-01", "lon": -4.1985868156999997, "name": "Torridge & West Devon", "slug": "torridge-west-devon"}}, {"pk": 518, "model": "signup.constituency", "fields": {"lat": 50.385462018200002, "year": "2009-01-01", "lon": -3.6903278024100001, "name": "Totnes", "slug": "totnes"}}, {"pk": 519, "model": "signup.constituency", "fields": {"lat": 51.586720784199997, "year": "2009-01-01", "lon": -0.077480218229800002, "name": "Tottenham", "slug": "tottenham"}}, {"pk": 520, "model": "signup.constituency", "fields": {"lat": 50.2890713217, "year": "2009-01-01", "lon": -4.9854131586400001, "name": "Truro & St Austell", "slug": "truro-st-austell"}}, {"pk": 521, "model": "signup.constituency", "fields": {"lat": 51.130592868299999, "year": "2009-01-01", "lon": 0.332189371407, "name": "Tunbridge Wells", "slug": "tunbridge-wells"}}, {"pk": 522, "model": "signup.constituency", "fields": {"lat": 51.428775495099998, "year": "2009-01-01", "lon": -0.34841773456500003, "name": "Twickenham", "slug": "twickenham"}}, {"pk": 523, "model": "signup.constituency", "fields": {"lat": 54.9532320625, "year": "2009-01-01", "lon": -1.63621631012, "name": "Tyne Bridge", "slug": "tyne-bridge"}}, {"pk": 524, "model": "signup.constituency", "fields": {"lat": 55.038157134999999, "year": "2009-01-01", "lon": -1.4568337173399999, "name": "Tynemouth", "slug": "tynemouth"}}, {"pk": 525, "model": "signup.constituency", "fields": {"lat": 51.574243452899999, "year": "2009-01-01", "lon": 0.26380607955800001, "name": "Upminster", "slug": "upminster"}}, {"pk": 527, "model": "signup.constituency", "fields": {"lat": 51.535650971099997, "year": "2009-01-01", "lon": -0.45569433087200001, "name": "Uxbridge", "slug": "uxbridge"}}, {"pk": 528, "model": "signup.constituency", "fields": {"lat": 53.257368275799998, "year": "2009-01-01", "lon": -3.40696631992, "name": "Vale of Clwyd", "slug": "vale-of-clwyd"}}, {"pk": 529, "model": "signup.constituency", "fields": {"lat": 51.447823532599998, "year": "2009-01-01", "lon": -3.3761625743899999, "name": "Vale of Glamorgan", "slug": "vale-of-glamorgan"}}, {"pk": 530, "model": "signup.constituency", "fields": {"lat": 54.120810945499997, "year": "2009-01-01", "lon": -1.35751397417, "name": "Vale of York", "slug": "vale-of-york"}}, {"pk": 531, "model": "signup.constituency", "fields": {"lat": 51.4845868086, "year": "2009-01-01", "lon": -0.12045632985, "name": "Vauxhall", "slug": "vauxhall"}}, {"pk": 532, "model": "signup.constituency", "fields": {"lat": 53.624487835899998, "year": "2009-01-01", "lon": -1.6226775312499999, "name": "Wakefield", "slug": "wakefield"}}, {"pk": 533, "model": "signup.constituency", "fields": {"lat": 53.421583635600001, "year": "2009-01-01", "lon": -3.0771158122100002, "name": "Wallasey", "slug": "wallasey"}}, {"pk": 534, "model": "signup.constituency", "fields": {"lat": 52.6052326597, "year": "2009-01-01", "lon": -2.0224278281500001, "name": "Walsall North", "slug": "walsall-north"}}, {"pk": 535, "model": "signup.constituency", "fields": {"lat": 52.574829292099999, "year": "2009-01-01", "lon": -1.9775986292400001, "name": "Walsall South", "slug": "walsall-south"}}, {"pk": 536, "model": "signup.constituency", "fields": {"lat": 51.584976861800001, "year": "2009-01-01", "lon": -0.023547790329599999, "name": "Walthamstow", "slug": "walthamstow"}}, {"pk": 537, "model": "signup.constituency", "fields": {"lat": 55.165684054800003, "year": "2009-01-01", "lon": -1.62950949754, "name": "Wansbeck", "slug": "wansbeck"}}, {"pk": 538, "model": "signup.constituency", "fields": {"lat": 51.363657229200001, "year": "2009-01-01", "lon": -2.4978752634100001, "name": "Wansdyke", "slug": "wansdyke"}}, {"pk": 539, "model": "signup.constituency", "fields": {"lat": 51.632020533599999, "year": "2009-01-01", "lon": -1.4070966469499999, "name": "Wantage", "slug": "wantage"}}, {"pk": 540, "model": "signup.constituency", "fields": {"lat": 52.486743472400001, "year": "2009-01-01", "lon": -1.9884520186300001, "name": "Warley", "slug": "warley"}}, {"pk": 541, "model": "signup.constituency", "fields": {"lat": 53.432178546800003, "year": "2009-01-01", "lon": -2.5655505589900001, "name": "Warrington North", "slug": "warrington-north"}}, {"pk": 542, "model": "signup.constituency", "fields": {"lat": 53.367438011700003, "year": "2009-01-01", "lon": -2.5613598192699998, "name": "Warrington South", "slug": "warrington-south"}}, {"pk": 543, "model": "signup.constituency", "fields": {"lat": 52.293076389500001, "year": "2009-01-01", "lon": -1.6477813154900001, "name": "Warwick & Leamington", "slug": "warwick-leamington"}}, {"pk": 544, "model": "signup.constituency", "fields": {"lat": 51.668760882299999, "year": "2009-01-01", "lon": -0.414369307327, "name": "Watford", "slug": "watford"}}, {"pk": 545, "model": "signup.constituency", "fields": {"lat": 52.456324807400001, "year": "2009-01-01", "lon": 1.55809197517, "name": "Waveney", "slug": "waveney"}}, {"pk": 546, "model": "signup.constituency", "fields": {"lat": 50.992059230499997, "year": "2009-01-01", "lon": 0.176359665059, "name": "Wealden", "slug": "wealden"}},